province,city,distance,rice_ratio,Lineage,fr,sex_ratio,FS,P_tgf,P_ila,dr,pd,lon,lat,GDP,nap,CD
浙江,瑞安,0.9108737545930349,1.6266403843842712,-0.4679950060726285,-0.039497568397331075,0.3276181251426033,-0.9490596496058007,-1.0932358957364485,1.4460675213240426,-0.20598251902866158,2.118017783574975,0.4727073249097901,-0.8191179223546033,1.5114238909956241,-0.5249782479314529,-1.35109765568789
浙江,遂昌,0.7119949759610719,1.6546904967420044,0.3372574929318574,-0.039497568397331075,-1.1273713035920494,-1.49098742933687,-1.0319732638901675,1.6071286312972117,0.4933662241107389,-0.9083444073718561,0.37483263841938114,-0.7010933986930054,0.6811784538926133,-0.09094698639587985,-1.0754606083538778
浙江,临海,0.7203544945154945,1.9653025197474152,0.14663966701070208,-0.35444886297931444,0.8100097281367498,-1.2200235394713348,-0.9571293819066379,1.7614129058606265,-0.06077256945791044,0.6795836982280964,0.5079709987188352,-0.6651103122108109,0.8876195189556393,-0.4249623485341251,-0.9573304452107292
浙江,江山,0.6105143088585452,1.8153782864996184,0.9803015535322828,0.32794560861498284,-1.0844773746503127,-1.6264693742696374,-1.1798868711290933,2.1823090123429374,0.1699050480392778,-0.16904198302442905,0.32805429561146565,-0.6795035468036889,0.90357987486298,-0.03244712071065034,-0.7473212662895771
浙江,慈溪,0.3426209003005343,1.1903484839736769,-0.5810072261690967,-1.2993027467252634,-0.836107689326381,-2.0780758573788627,-2.127844070428401,2.689770380291871,-0.025710190404913888,1.502045768514575,0.5158873336555594,-0.47511961558482374,-0.3987237811917612,-0.5872522984996001,-0.6291911031464421
浙江,宁海,0.5720216420265524,1.5777900389645025,-0.9696174590594897,-0.6169082751309672,-0.4655579179167585,-1.6264693742696374,-1.4262333422093494,1.9882473320181808,0.391843270245182,-0.048066504059377436,0.5302806699041492,-0.6032194034614363,-0.5676580098725365,-0.16454359161278115,-0.8654514294327251
浙江,仙居,0.6948871240357418,1.7666784096951336,1.3110903271231769,0.38043749104531344,0.13712694144423526,-1.2651841877822574,-1.2909942877473797,2.167521313024965,0.0498029257686105,-0.3342758770868142,0.47990399303408554,-0.6622316652922353,-0.6987784722497661,-0.6438650717433707,-0.9048281504804413
浙江,龙泉,0.9789163474778708,1.5544768474336428,0.5158215445668237,0.06548619646333005,-1.0330062322783264,-0.9490596496058007,-0.6805610733279382,0.9272972463501303,-0.02202230282732149,-0.8932592660023169,0.36475730304536835,-0.7759382185759703,0.48590963796472597,-0.3343819113440924,-1.206716345179598
浙江,平阳,0.9386740139716968,1.631942270509015,0.2780344319711727,0.06548619646333005,0.10891097535701173,-0.9038990012948782,-1.0110333914949545,1.1675088737275565,0.5131268639420943,1.7297843382245552,0.4683893240352131,-0.8349504804067688,0.5886083896300374,-0.12585819656287137,-1.2854697872750434
浙江,桐庐,0.3875290116045263,1.7372274037784021,-1.1205052686616717,-1.5617621588769162,-0.9475564313861449,-0.9942202979167232,-0.1700396408333697,1.4933153056434996,-0.36887212180038104,-0.428339015145766,0.40361931091656067,-0.5283745835784718,2.1763568724891407,1.059235856673389,-0.5241865136858528
浙江,永康,0.6544503831213252,2.024564057605019,1.554322123094968,-0.2494650981186533,-0.08650168919134331,-1.85227261582425,-2.1120890627579496,3.2951779143151407,-0.427955673863853,0.712000995501938,0.42952731616402184,-0.6579136949143723,2.4900392520526444,-0.5504539958911495,-0.7604468399721488
浙江,绍兴,0.3978326042413728,2.1113821619290865,-0.8569825932564175,-1.5092702764465857,-0.8291578665286368,-1.5813087259587149,-1.2888555446727186,1.9752467335387613,-0.08330286775416963,0.9565984444034127,0.4683893240352131,-0.4995881143927163,-0.7393546078449669,0.9214781084468809,-0.5110609400032805
浙江,东阳,0.5488871604457085,1.8173697312760098,0.6921753781976123,-0.8268758048522883,-0.06127320349228926,-1.8748529399797107,-1.5706382827135477,3.4129221569422294,-0.4698423915668601,0.45491711754273284,0.4439206524126116,-0.6032194034614363,-0.6304558717694961,-0.3570270206416006,-0.6423166768290008
浙江,余姚,0.38402967825616297,2.0270396902258216,-1.449364144580626,-1.456778394016255,-0.7055312109918294,-1.4684071051814092,-1.0968805330144624,1.6353315445448204,0.1890418909190784,0.746319918803702,0.5101299991561238,-0.49527014401485275,3.3347717814407796,-0.10510017970682231,-0.6423166768290008
浙江,云和,0.8791853470495258,1.3615765696187054,0.5858908460748316,-0.45943262783997557,-1.6265769179182512,-0.7684170563621107,-0.5957763549512645,0.7324320125845144,0.6819375473779725,-0.832471790914905,0.39642264279226525,-0.7701809247388188,0.976015336288603,-0.21172090264925664,-1.1148373294015939
浙江,兰溪,0.5545249752847374,2.0875681683127376,-0.7780508566292236,-0.45943262783997557,-0.22391792525670753,-1.3555054844041023,-0.8874338515160054,1.753798532137044,0.34876759555251136,0.5663198897825451,0.3877866410431122,-0.6118553442171633,0.8239622532790535,0.07228650979032485,-0.6685678241941447
浙江,安吉,0.15851708469499265,1.902311667800505,-1.4962638924741238,-1.0893352170039412,-1.4065985166095867,-1.107121918694029,-0.4068552307957812,1.2457878679450163,0.7678393779826919,-0.35968956486344505,0.4043389777289905,-0.40891073645758624,1.7025798459781583,0.05718977025865273,-0.37980520317756034
浙江,义乌,0.5197260492093503,2.000120394128667,0.739355446423347,-1.4042865115859244,0.9877883966044017,-2.1006561815343234,-2.2230174560356764,3.987863888657775,-0.27325402987824277,1.16400872523599,0.43240598341373915,-0.6003407565428608,-0.3313833564596353,-0.04093903669721589,-0.5898143820987128
浙江,泰顺,1.1214169777195417,0.9135813997704363,0.912722790360688,1.2203076099306012,-0.5989882262010627,-1.3103448360931798,-0.671135235585719,2.9897931184359767,1.8160640325938024,-0.5013632398663797,0.4072176449787078,-0.8493437149996469,-0.7789485676920236,-0.6523569877299362,-1.390474376735606
浙江,玉环,0.809198680082266,1.3588216769440657,0.8583083012529912,-0.406940745409645,-0.42276619225145806,-1.5361480776477925,-1.5527828162596813,2.2897455171287264,0.35687945111053104,2.743701457423061,0.5158873336555594,-0.7687416012795313,3.686943173134678,0.8997765453701022,-1.3117209346401744
浙江,淳安,0.5405276418912854,1.4830156499795337,-1.6798844916405942,-2.0341891007498902,-1.0226522541961665,-1.1748628911604133,0.3744500399805774,3.065844970644889,0.1258263078485069,-0.870800186184679,0.357560634921074,-0.5571610527642272,-0.6897547325636927,1.9631531361322565,-0.681693397876717
浙江,开化,0.48317745645978094,1.6055184915825509,0.7303744142405224,0.5904050207666357,-0.8529633681480617,-1.6490496984250993,-1.0713946394590879,1.8208645321932373,-0.10562856065031877,-0.6703507762365767,0.31366095936287586,-0.6248092553507533,0.3781158496059173,-0.27682559187959255,-0.799823561019865
浙江,嵊泗,0.44449038221954595,-0.8405452302812837,1.1891294194976045,-1.1943189818646023,-1.2512731217961888,-2.145816829845246,-1.7904571460360559,2.5654451558192473,1.7589167462679565,2.096409870652547,0.6036866847719558,-0.39451750186470824,-0.8035643473798837,1.740476228040093,-1.0754606083538778
浙江,平湖,0.2001202700588639,2.0929579056592003,-0.4800811250125393,-2.506616042622865,-1.2629636042625303,-0.9038990012948782,0.47850333751148594,1.4491566204069952,0.27571099177421027,2.032868876899336,-8.208633433427005,-4.817558492256057,-0.8025207856474806,0.8120267468422581,-0.6029399557812847
浙江,乐清,0.7998671244866314,1.8721254921548127,-0.036226223568977284,-0.039497568397331075,0.9591557556209317,-1.1748628911604133,-1.322361384150499,2.2170594260427117,-0.23958646080892285,2.54726129954941,-8.208633433427005,-4.817558492256057,-0.5898797361742955,-0.968444971674321,-1.259218639909886
浙江,建德,0.49153697501420396,1.7823231238640262,0.9731426035089995,-0.35444886297931444,-0.9171548875412585,-1.9425939124460951,-1.3517626298831964,2.6786359289481325,0.4130760708822071,-0.4604857754937055,-8.208633433427005,-4.817558492256057,-0.6186083768075087,0.11002835861950531,-0.7079445452418609
浙江,温岭,0.7448498279540356,1.8428080401191043,-0.11023079127954481,-0.6694001575612978,-0.2786517106841949,-1.7845316433578657,-1.6830521337402256,2.699865649742168,-0.29411130475043173,3.861418730887867,-8.208633433427005,-4.817558492256057,2.1536440583133096,-0.5919700296032478,-1.0885861820364495
浙江,富阳,0.3087940112663591,1.9274301030083536,-0.5314336535681083,-0.7743839224219577,-1.1276936370023527,-1.4458267810259473,-0.8475149164039162,1.6714383322857453,0.8437442386417926,0.05403511286912926,-8.208633433427005,-4.817558492256057,-0.45556720261559763,0.7299382256387913,-0.4979353663207219
安徽,宿松,0.16337726990105236,1.058174520779474,0.5392175107573729,1.850210199094568,1.9029715663585614,-1.2651841877822574,-1.1301551680714441,1.5752996579737453,-0.7601225601912139,0.008181856833815742,0.14813759250409608,-0.4779982625033998,-0.04348309028491288,-0.17869678492372396,-0.31417733476470017
安徽,阜南,-0.4431738438151986,-0.7750192826937569,-0.020140149119070427,2.2701452585372115,0.17940765072734838,-0.542613814807498,-0.48631993136258295,2.7889908532326313,-0.6812272169463589,2.1274773563136393,0.1092755846329038,-0.12104604460002968,0.3130467062913745,-0.9967513582962061,-0.07791700847840365
安徽,芜湖,-0.07341095333817636,1.8599103788539662,-1.8007888072446585,-0.039497568397331075,-0.6952008182811543,-1.5135677534923317,-1.0294651659629515,2.433669440232689,-0.13562695605059305,0.6793353146443788,0.3107822921131575,-0.30815809430744173,-0.741748661231068,0.11002835861950531,-0.2222983189866961
安徽,寿县,-0.3518023619412761,0.6116833063044903,-1.064883245815109,1.2727994923609318,1.3013637722954081,-1.5587284018032541,-1.2250130148227565,2.730003183350994,-0.5595556215455797,0.4305342706430864,0.1956356021244414,-0.12824266189646918,-0.7297170083163035,-0.3494786508757645,-0.13041930320869202
安徽,蒙城,-0.5395999183034231,-0.7659961344178028,0.11614944010430843,1.2727994923609318,1.0003829849776906,-0.1135876558537346,-0.26741485003789295,0.5396992666627328,-0.5058566847679294,1.0265678219299756,0.18052259906342177,-0.028929343205611656,-0.7157210039052508,-0.7221794080639198,-0.0779170084784167
安徽,旌德,0.19156634409619863,1.9048071778474283,-0.6337613563858514,-0.35444886297931444,-1.2179548536775884,-0.6555154355848039,0.40306747956545164,0.6944918038818793,1.1394090225519684,-0.6393805375211723,0.3215772942996001,-0.45928705753265825,-0.5437788619957844,-0.11264854947265855,-0.4848097926381366
安徽,金寨,-0.25401543559535494,0.9938745501637763,-1.1306938345833633,0.32794560861498284,2.983755491103329,-0.926479325450339,-0.14416409221406748,1.860964668377882,-0.8997495270455489,-0.6038710671167987,0.13374425625550632,-0.2520244793952182,0.04785925429248306,-0.27682559187959255,-0.13041930320869202
安徽,歙县,0.33231730766368783,0.6633749500375088,1.0949525694172138,0.012994314032999488,-1.175949307061807,-0.8135777046730331,0.035729432573972396,1.3335811161549074,-0.15493222410731344,-0.44829963667878675,0.3143806261753057,-0.5182993193634573,-0.7571565432800776,-0.28343041542469916,-0.6160655294638568
安徽,含山,-0.18014062046324722,1.7165517949745979,-0.8918716930686836,0.012994314032999488,1.2727704402644153,-0.6780957597402656,0.03896316087548086,2.200234900004817,-0.5306725750946857,0.3085046743848457,0.29063162136513204,-0.2520244793952182,-0.8397206921084363,0.1873991487193249,-0.23542389266926786
安徽,和县,-0.20852410206663616,1.4150535919785223,-1.0793413060277932,0.012994314032999488,1.9969592717285163,-0.36197122156380795,0.5692429662147808,1.9729662226926639,-0.413428690456043,0.4655415597110141,0.3100626253007287,-0.2520244793952182,-0.02586531280257912,-0.31645453315023186,-0.23542389266926786
安徽,怀远,-0.502468103329127,-0.42586380485497577,-1.2638999001521352,1.3252913747912625,0.3097954460900161,-0.20390895247557964,-0.2578376462900714,0.7531766307843966,-0.3268793586156095,0.7789418675217176,0.22442227462162093,-0.07210904698424568,-0.7352417468996137,-0.1730355075993467,-0.051665861113259694
安徽,泾县,0.06850645467876701,1.723449069535042,0.0209914688610887,-0.3019569805489839,-1.1117263405066287,-1.197443215315874,-0.46781295074238777,1.353847428735231,0.8967819506507951,-0.6056106508904369,0.3122216257380172,-0.39883547224257176,0.8213840419401754,0.1902297873815132,-0.35355405581241633
安徽,青阳,0.1161362696981521,1.8938075315019178,-0.618473116727695,-0.3019569805489839,-1.0665603541117823,-0.8135777046730331,0.11212049039874583,0.728114675018493,0.08052118285097916,-0.414379933746881,0.2726399510543951,-0.40603208953901077,-0.4326088445027306,0.01850437520874294,-0.23542389266926786
安徽,定远,-0.395349621387571,0.3580650915461457,-1.0538213742429867,1.010340080209279,1.4533479061483527,0.044474613234493705,-0.03360764240645315,0.3649895799655419,-0.5191909684043666,-0.07466644218409216,0.259685948430665,-0.13543927919290769,-0.03507321044142952,-0.2909787851905352,-0.11729372952611981
安徽,天长,-0.3339168803829765,1.0374846280952335,-1.0122369311107526,-0.6169082751309672,-0.5183734264634203,-0.36197122156380795,0.4454619505207436,-0.3609585223806394,-0.5655528054378284,0.0550411599880925,0.3554016344837855,-0.11097078038501518,-0.7523070505236165,0.2817537707922756,-0.2879261873995562
安徽,怀宁,0.047121639772104304,1.6286919225805592,1.1109523914572028,0.6953887856272957,0.6209729756799914,0.40575979972187387,1.4104198275078055,-0.240343187337196,-0.7990474899682384,0.7026168692690611,0.19923393618658858,-0.39595682532399623,0.3695831977939159,-0.38061567615983827,-0.3273029084472724
安徽,望江,0.14160364017790522,1.4630943128955973,-0.3747238062963889,0.6953887856272957,-0.03141412319157197,0.45092044803279635,1.5305165592022891,-0.8932542733164867,-0.7614200578504481,0.428879349559669,0.18843893400014702,-0.48087690942197525,-0.696138874926629,-0.6032925842520019,-0.2879261873995562
安徽,泗县,-0.6259168075630435,-0.8210339759816498,-0.007967777769240436,0.38043749104531344,0.12392699520281807,0.47350077218825815,0.5354961128180883,-0.4678487518009313,-0.4934543537771154,0.6098487782596039,0.2747989514916836,0.0012964494394308288,-0.765750581076338,-0.9731627027779685,-0.20917274530412389
安徽,凤阳,-0.4612537327817408,0.21434057113115404,-0.12314708966492548,0.38043749104531344,1.0088973040839764,-0.0006860350764288155,-0.16824300400539408,-0.06984561096972305,-0.2198857054849168,0.14386546880083181,0.2524892803063696,-0.08650228157712368,0.15737185021054378,-0.10038244860317472,-0.13041930320869202
安徽,凤台,-0.41401273257884036,0.08529007876444342,0.6302353663244765,0.38043749104531344,1.5062027236474917,-0.47487284234111476,-0.6638069955232985,0.35128058568957554,-0.17523057691090924,1.2893123552210477,0.19131760124986436,-0.11097078038501518,0.3741871466133411,0.6431319733316765,-0.07791700847840365
安徽,舒城,-0.13834302769113377,1.6686860572208473,-1.6433134698349068,0.06548619646333005,-0.4701413417754524,-1.0845415945385681,-0.22223107554281699,1.6618372280623934,-0.6798486256834226,0.4715758875347262,0.20643060431088397,-0.2880075658774127,-0.7394159938292258,-0.08056797796785534,-0.16979602425640772
安徽,庐江,-0.08021521262665995,1.8102125898414112,-1.1415292935794463,0.432929373475644,0.580406136724829,-0.5877744631184205,0.12122779193835628,1.1997874543334095,-0.8428991680686433,0.5666914977782408,0.2316189427459153,-0.31967268198174376,0.3431872245625448,-0.35136574331722353,-0.16979602425640772
安徽,祁门,0.381502381949012,1.3933423433338463,1.193765486530754,0.432929373475644,-1.3659766451209583,-1.2651841877822574,-0.5921840349965191,1.7396935511560427,-0.11119033427038216,-0.9312628283001849,0.2632842824928122,-0.5182993193634573,-0.7545169459569405,0.49876940156006183,-0.6948189715592887
安徽,岳西,-0.05008206434908979,0.9889985755638844,1.2755004264803185,0.432929373475644,-0.9105352599443118,-0.7909973805175714,-0.004627660120491355,0.9267884802147994,-0.7649295394998958,-0.6355878857824211,0.16468992918997333,-0.37724562035325476,-0.33482097157813945,-0.5683813740850101,-0.5504376610509967
安徽,铜陵,0.04323349160725654,1.355250724248485,-0.21802474057590854,0.11797807889366062,-1.0370550543833479,-1.49098742933687,-1.351622299562971,1.1527262092055799,-0.31003808851753095,0.028469989640342606,0.2704809506171066,-0.36573103267895274,-0.7989603985604584,0.07417360223178382,-0.16979602425640772
安徽,来安,-0.35005269526709465,0.6698942428632987,-1.5479829937718488,0.11797807889366062,-0.8180648801399292,-0.45229251818565297,0.09791906199191802,0.7212791842353924,-0.5807934125582171,-0.024348886581684583,0.3143806261753057,-0.14695386686720968,-0.12617001108178943,-0.21832572619436322,-0.19604717162155216
安徽,当涂,-0.14223117585598152,1.4850072001199088,-0.7085637588881695,-0.19697321568832277,-0.1337196029054332,-0.42971219403019223,0.19666610225891895,1.3219253116858491,-0.14685280599077447,0.49563070876125576,0.3179789602374529,-0.2764929782031102,0.18057575226044678,0.012843097884366021,-0.274800613716984
安徽,枞阳,0.06656238059634312,1.4564117240786159,0.10195013712138054,0.8003725504879567,0.051252603865313995,0.3154385031000288,0.8693416721486632,0.1745876928498123,-0.8040902645246081,0.6874152496079128,0.2258616082464796,-0.39883547224257176,0.09549477807746912,-0.5561152732155267,-0.16979602425640772
安徽,繁昌,-0.01217261974182409,1.8599103788539662,-0.9982748222551029,-0.8268758048522883,-0.7518371570084774,-1.49098742933687,-1.1122600548960382,2.5951753744320487,0.514611500686795,1.1958159129366328,0.2978282894894274,-0.34414118078963624,-0.24961722542664377,0.8856233520591598,-0.2616750400344123
安徽,东至,0.22092186274079953,1.6038236540089206,-0.9060494329491311,0.48542125590597457,-0.70659255270868,0.11221558570087797,0.8878234478084293,-0.658205074012903,-0.6006650882469493,-0.6280254228926521,0.2129076056227485,-0.4851948797998383,-0.7940495198197383,-0.38816404592567433,-0.37980520317756034
安徽,肥东,-0.2507105096552343,0.7857510561931046,-0.6434539709505074,0.48542125590597457,1.2727547166834245,-0.9942202979167232,-0.8750182967378346,1.5917803074451564,-0.6380716962438893,0.5194697402091629,0.24529261218207524,-0.22899530404661372,-0.7001289639034642,-0.09660826372025677,-0.14354487689127682
安徽,广德,0.14860230687463102,1.486632590855373,-1.4855578120929185,-0.1444813332579922,-0.8348183556851713,-0.42971219403019223,0.30864111448807596,-0.2937804981135494,0.1464116072498179,-0.3895229716308067,0.3856276406058237,-0.37004900305681626,-0.7801149013929446,-0.21738217997363357,-0.3929307768601325
安徽,萧县,-0.7620019933327152,-0.839706106825893,-0.32391035530281287,1.1678157275002707,0.42817042557603896,-0.24906960078650217,-0.8558731537681865,-0.046815950607346474,-0.6248359725257978,1.4822800203471234,0.20643060431088397,0.10204909158957585,-0.7267704810718714,-0.692929475221305,-0.051665861113259694
安徽,绩溪,0.32356897429278036,1.9048071778474283,1.1975605925671937,-0.45943262783997557,-0.938947770793916,-1.197443215315874,-0.40696477019137506,1.2715793656506476,0.09003658154999708,-0.6553251007566656,0.32661496198660595,-0.48951285017770174,-0.26760331881453153,0.7940993686483977,-0.5766888084161407
安徽,肥西,-0.20171984277815258,1.4966971041166783,-0.9387606594109413,-0.45943262783997557,-0.09525186201248584,-1.1748628911604133,-0.961408366729283,2.3883859815708215,-0.6678692290257627,0.45687050630829146,0.2237026078091911,-0.2520244793952182,0.07100177035812706,-0.0022536416473060996,-0.13041930320869202
安徽,霍山,-0.17936299083027793,1.0372800989497166,-0.5747215817962441,-0.7743839224219577,-0.39221527438716375,-0.3393908974083472,0.6024998896779475,-0.20911864127297164,-0.5238282749422255,-0.5844119874574294,0.16325059556511468,-0.29808283009242725,-0.6712775513017329,-0.31456744070877285,-0.156670450573836
安徽,郎溪,0.011156269247262492,1.4852898890896105,-2.0239992625639855,0.22296184375432174,-0.8497714812070152,-0.6780957597402656,-0.22543469413484019,0.6921609450758273,0.004134750945277768,-0.13141128293563964,0.36763597029508677,-0.33694456349319724,-0.11297202446610387,-0.04754386024232246,-0.34042848212984417
安徽,南陵,0.01990460261816996,1.9330901272339986,-1.3187456513094267,0.22296184375432174,-0.3177641183977477,-1.6038890501141767,-1.0124054950434904,2.198259497796038,-0.07990566955600173,0.3246247282480399,0.30718395805101034,-0.36717035613824023,0.10157199051911038,0.4147937879151357,-0.2879261873995562
安徽,全椒,-0.28356536164819784,0.9407108520063151,-1.7026659094104704,-0.09198945082766163,0.3694428505769961,-0.9490596496058007,-0.7722206149653713,0.49389269269694724,-0.5489610541203715,-0.15985186570433113,0.3028659571764333,-0.1973301879422822,0.16793023950309224,0.9026071840322908,-0.2222983189866961
安徽,休宁,0.32998441876477913,1.4606116641749833,0.42990336273618485,-0.7218920399916272,-0.8678929082984205,-0.1135876558537346,1.0996531561331635,0.13910169545511564,-0.07874790241391581,-0.7778258670132828,0.29638895586456876,-0.5312532304970473,-0.24759148794609667,-0.5136556932826988,-0.6029399557812977
安徽,五河,-0.5535972516968752,-0.3803632609674381,0.1339821258550777,0.2754537261846523,0.9842348673005779,0.29285817894456806,0.3894390893400498,-0.12569509250745342,-0.463739162192847,0.40533523612418854,0.2747989514916836,-0.04620122471706568,0.058110713663736505,-0.5674378278642807,-0.18292159793897994
安徽,太湖,0.08833601031949069,1.533923391210278,0.5118108075055863,0.2754537261846523,0.1970101996460709,0.3380188272554906,1.2861155023380537,-0.17404851802749174,-0.6960037191347909,-0.23261597107404808,0.15893259469053764,-0.43769720564334175,0.4654681052064781,-0.7080262147529771,-0.3273029084472724
安徽,无为,-0.06369058292605696,1.8218287655236511,-1.3370742884172304,0.2754537261846523,1.3674971539409178,-0.15874830416465713,0.40272346591635516,1.133244066101534,-0.4823108450345391,0.8484026098135039,0.27767761874140195,-0.3124760646853047,0.7294278375201895,-0.42590589475485463,-0.19604717162155216
安徽,临泉,-0.494497399591189,-0.8394541160019725,0.2800290189505512,1.5877507869429153,0.6260202451779011,-0.3168105732528854,-0.672859254879053,0.9344265174795603,-1.42703760463147,3.0980180685690146,0.08552657982273114,-0.05771581239136767,-0.6161529374371486,-1.0344932071253865,-0.038540287430687485
安徽,濉溪,-0.7019301041858172,-0.8393590798241113,-0.24071990593586545,0.11797807889366062,1.4252813140805372,0.4960810963437189,0.09905001537851306,-0.7822785586857591,-0.5003298437771533,0.7535854184088583,0.19491593531201154,0.06462668164809386,-0.648933053031456,-0.27776913810032205,-0.11729372952611981
安徽,太和,-0.5683722147232965,-0.8405452302812837,0.12711427771527137,1.2203076099306012,0.960468674633629,-0.6103547872738823,-0.9803355208519791,1.1037784260182888,-1.4455007468035912,2.129790606328232,0.11215425188262217,-0.043322577798489664,-0.09707305454302219,-0.8571065176282392,-0.038540287430687485
安徽,砀山,-0.8111870676180395,-0.8357248138565356,-0.5355953323467036,0.9053563153486178,1.5902138168790545,-0.47487284234111476,-1.151687016429162,0.1755881068140902,-0.7138555402943885,1.737147925414691,0.16468992918997333,0.13659285461248288,-0.43070587899070156,-0.3258899953575269,0.07958987571246055
福建,周宁,1.173323755720259,0.5795287946164097,1.5141285000726794,2.16516149367655,0.4240901563090369,-1.2651841877822574,-0.966709446758076,3.609678208343903,0.007480797793418233,-0.5482739739017681,0.37915063929395815,-0.9141132706675968,0.6340512060572918,-0.7382196938163214,-1.5742324082916148
福建,寿宁,1.1801280150087425,0.17070057356846902,1.1926118605480869,1.955193963955228,0.6397783785444773,-0.6780957597402656,-0.8668137415106658,2.086457573142472,-0.11085223632263926,-0.5539920268232282,0.3913849751052594,-0.8637369495925249,-0.6856713368907839,-0.6174457775629444,-1.4692278188310384
福建,连城,1.403113312262762,0.9625310365066895,1.7241638997768671,1.2727994923609318,1.2923934693403998,-1.1522825670049515,-0.9728131344727416,1.7794905926217666,-0.31976807336788415,-0.7746131852093798,0.1934766016871529,-1.1156185549678863,1.1131055856350207,-0.37589794505619084,-1.5348556872438985
福建,上杭,1.533366275785162,0.9177825011594887,1.1713182968493145,0.9578481977789485,0.2682380215324607,-0.8813186771394164,0.18559867225611898,1.9747868049245856,-0.506781151850134,-0.6110181557074841,0.16972759687698022,-1.2120532267401674,1.2295701442704134,-0.42307525609266616,-1.6136091293393304
福建,建宁,1.090700607217244,0.7737373559023627,0.6641325634226735,0.642896903196965,0.21535961866183634,-0.4071318698747305,0.48036400856325384,0.38651056370790837,-0.49191607049458097,-0.9200679604949595,0.19923393618658858,-0.9558536509869429,1.3412152892816318,-0.2192692724150927,-1.1148373294015939
福建,沙县,1.2613903116540612,1.1318008095328038,1.2512419361905776,0.32794560861498284,0.2086377877884522,-0.9038990012948782,-0.43148470066869193,2.2139600056279685,0.4308418080624901,-0.7198816943612643,0.2676022833673892,-1.0177445597363173,-0.820272384575499,0.7884380913240204,-1.5217301135613395
福建,松溪,1.052985570018221,0.4701825801533256,0.3359960514367918,1.3252913747912625,-0.5913151186777608,-0.9716399737612614,-0.9611838382169222,1.41741273513585,-0.18527869820655524,-0.6475551924415233,0.33956896461033703,-0.8551010088367978,-0.7314855385228053,-0.11925337301776479,-1.2460930662273142
福建,永安,1.403113312262762,0.8565241868066951,0.082888354529265,-0.3019569805489839,-0.5392464802281407,-0.8361580288284939,-0.5670568693374103,1.174065436812514,1.1841589682626124,-0.8297429607718857,0.23809594405778087,-1.078196145026404,2.3844934184374003,1.528178328375954,-1.5742324082916148
福建,南靖,1.7895952398486294,1.519877972292136,1.6750431523279539,-0.3019569805489839,-0.775351772379581,0.27027785478910626,0.9682651471386655,-0.5199319541943327,-0.6390785045236989,-0.5941343854977611,0.23809594405778087,-1.2883373700824199,-0.6466132766863083,-0.44194618050725626,-1.9417484714036313
福建,柘荣,1.1225834221689959,0.11542103159984102,1.993745806978937,1.010340080209279,-0.6317876161469813,-0.27164992494196294,-0.2086003691859163,2.3693358239631768,1.3490646827817574,-0.5089047696919035,0.42017164760243897,-0.8982807126154313,-0.6257911508256546,-0.5759297438508462,-1.4561022451484793
福建,闽清,1.3685087935956168,0.7130214311609857,0.9266202099088988,1.010340080209279,0.28605283879455246,-0.9490596496058007,-0.38990973153491154,2.7166863996830664,0.11892711356430989,-0.4763047183082601,0.3446066322973429,-1.0436523820034973,1.328197163599825,-0.05037449890451109,-1.6661114240696189
福建,光泽,0.8797685692742528,0.5275969309114034,-0.07415572083089084,1.010340080209279,-0.34974588213216656,-0.8361580288284939,-0.3984607527857053,1.5759670201829294,0.06200813692273339,-0.9769041632690871,0.2352172768080625,-0.8522223619182223,-0.6920039150269426,0.34025363647750473,-1.1410884767667377
福建,浦城,0.819113457902628,0.9209811268703239,-0.5728024656755445,1.010340080209279,-1.0329118907923844,-1.0845415945385681,-0.7697294111737942,1.8379853559754593,0.008468892164681042,-0.7767134788012895,0.3215772942996001,-0.7989673939245743,0.4538501938256193,0.27420540102643937,-1.206716345179598
福建,古田,1.2479762004853363,0.5239136954377435,0.798158026885676,0.6953887856272957,-0.8019089006723209,-0.9490596496058007,-0.5428466192657955,2.41585054198571,0.7626705964421081,-0.5921533118511982,0.3374099641730485,-0.9918367374691374,0.7034578830195757,-0.0994389023824454,-1.639860276704475
福建,泰宁,1.0957551998315465,0.635920112571094,0.5332553129217166,0.6953887856272957,0.3984056867612626,-0.2264892766310404,0.5813527916351008,0.5661248969239796,0.004214596955076872,-0.9294448628882762,0.2237026078091911,-0.9457783867719284,1.6797375073755407,-0.04754386024232246,-1.206716345179598
福建,明溪,1.3022158673849626,0.8954670892527877,0.34351079265099066,0.38043749104531344,-0.33836987128563173,-0.8361580288284939,-0.2701368495211814,1.623025244433162,0.7101568738724124,-0.9805043622354596,0.2258616082464796,-1.0220625301141804,-0.6075613550802585,0.4780113847040128,-1.4561022451484793
福建,长乐,1.4851532385410497,1.0585200017851044,1.3378824819542892,0.06548619646333005,1.5598987527296146,-0.9716399737612614,-1.1570534931120406,2.4285263961234285,0.29205447190494793,2.5201146327266026,0.3928243087301181,-1.079635468485692,-0.5761630379916214,-0.6438650717433707,-1.6004835556567587
福建,永泰,1.5036219423240766,0.5023470631836654,1.2915002485203062,1.377783257221593,1.054110461221793,-0.9942202979167232,-0.6641719905989144,2.5474744584730082,0.03437517956275537,-0.6581557405606663,0.3503639667967796,-1.0940287030785694,0.9467821028647808,-0.33815609622701054,-1.731739292482479
福建,诏安,1.9995552407504087,0.5652427377249383,1.997497786810417,-0.2494650981186533,0.20737203951872651,1.3767137384067074,0.9845036813202631,-1.1986710401502207,-0.7982777245300197,0.4268006154851493,0.22442227462162093,-1.4034832468254426,0.14921979150094827,-0.687268197896928,-1.9417484714036313
福建,平和,1.76276701751118,1.4574450572493771,1.9002589761778996,1.0628319626396097,0.6468618517806408,0.45092044803279635,0.5140139931660814,-0.20401788945007268,-0.7379153887158602,-0.3339959054256834,0.23305827637077398,-1.3099272219717364,0.2311350904756892,-0.758034164451641,-1.9417484714036313
福建,德化,1.4830147570503838,0.42721452893266265,1.8087020430488006,0.7478806680576262,0.753923714744089,-1.3780858085595642,-1.7775092897422335,2.280411508832928,-0.8494515312477758,-0.7194576773260944,0.29998728992671597,-1.1472836710722174,1.3969666540455006,-0.35419638197941217,-1.836743881943055
福建,福鼎,1.0459869033214948,0.374060160323457,-0.39961840810928206,0.7478806680576262,-0.678722505403244,-0.7232564080511881,-0.6082489955587306,2.2667548764353143,0.6012943250748609,0.12763027374429015,0.4432009856001818,-0.8838874780225539,0.7025370932556907,0.03454466096114472,-1.390474376735606
福建,将乐,1.1566047186114137,0.9834994798718283,0.9890130469341097,0.7478806680576262,0.2803687642665328,-0.20390895247557964,0.6097902541782099,0.753699242608715,-0.35470319784276344,-0.9616538102120673,0.24529261218207524,-0.9702468855798204,1.360695517526384,0.05435913159646444,-1.4429766714658945
福建,宁化,1.2565301264480015,0.7402169862197412,1.1157501817589504,0.7478806680576262,1.280247003025338,-0.06842700754281208,0.8035583603456784,0.6923625886554418,-0.5448402514584001,-0.6972897073610904,0.1862799335628585,-1.0364557647070585,0.4762008306943221,-0.3957124156915104,-1.298595360957602
福建,霞浦,1.1797392001922582,0.32957354958835317,0.9198925219352114,0.7478806680576262,-0.1958434713983965,-0.5200334906520373,-0.664102370410919,1.4941787731567042,0.3106498590307991,-0.10221029258457166,0.42736831572673334,-0.9486570336905039,-0.7045800616220845,-0.39382532325005143,-1.5217301135613264
福建,仙游,1.5811904982127898,0.36659315756923544,0.7914519020144679,0.432929373475644,0.8005441323805461,-0.1813286283201179,0.014648276157328277,1.1554933330846293,-0.16408332538662335,0.8736863937043374,0.33237229648604266,-1.1659948760429584,0.19146992288689205,-0.8835258118086654,-1.836743881943055
福建,政和,1.0424875699731317,0.6801258426017979,1.3003195574345314,1.7452264342339068,0.8806872246884762,-0.7006760838957263,-0.8449639019224563,1.5517647558332341,-0.17431609057992967,-0.758122043373139,0.3446066322973429,-0.8781301841854023,0.00778525604852097,-0.18152742358591223,-1.35109765568789
福建,永定,1.6087963501832085,0.7269284532929401,1.5287267204514825,1.7452264342339068,0.4390747289928626,-1.1297022428494907,-0.5707174470498576,2.520351005486805,-0.5353423190740255,-0.45981161834055273,0.1920372680622942,-1.2595509008966643,-0.6281354815645058,-0.6448086179641002,-1.823618308260483
福建,漳浦,1.8463622030554074,0.8559866765760122,1.7838505674408671,0.11797807889366062,0.31709118766954886,0.6767236895874089,0.8451665727786187,-1.1434879138624763,-0.9388316536543652,0.16823759500303553,0.2560876143685178,-1.3444709849946435,-0.734405669794006,-0.7231229542846492,-1.9417484714036313
福建,闽侯,1.3898936085022795,1.0233721986596334,1.5154222862214657,-1.5092702764465857,0.3186949929305665,-0.42971219403019223,0.09705146638104792,1.587111792858459,0.06929782809860377,-0.1404579367485752,0.36475730304536835,-1.053727646218512,-0.6263847532934391,-0.4164704325475596,-1.6267347030219026
福建,屏南,1.1599096445515344,0.3347221830737415,1.8392785223651134,1.11532384506994,-0.38470726446426057,-0.45229251818565297,-0.17380539816447116,1.881152689880477,0.13222396938365377,-0.7786240463641122,0.3539623008589268,-0.9428997398533524,0.6832637357778918,-0.4306236258585022,-1.6004835556567587
福建,建瓯,1.0988657183634243,0.6010261044563655,0.022630264649551573,0.8003725504879567,-0.8811243017018194,-0.7684170563621107,-0.27830284797104526,1.0829847185574522,-0.2438345180490117,-0.7759997930258602,0.3064642912385805,-0.9270671818011869,0.552447134022744,0.05530267781719376,-1.3379720820053183
福建,永春,1.5897444241754546,0.6356115318637382,1.1954474085241766,0.8003725504879567,1.2826291255453781,-0.4071318698747305,-0.06835111356280561,0.686696680982063,-0.6134891059770146,0.14292079909686298,0.3050249576137218,-1.1731914933393974,-0.6167753913175348,-0.6957601138834935,-1.902371750355928
福建,长汀,1.2936619414222974,1.1330318483368957,0.011083223271634902,0.48542125590597457,2.5199019900968342,-0.3845515457192697,0.09497362394050415,1.4188927134186862,-0.19794052872921614,-0.6437812369741683,0.16468992918997333,-1.0997859969157209,0.5287521440987689,0.03077047607822677,-1.4167255241007501
福建,连江,1.4112784234089424,1.1694613926621957,0.8796342096054829,0.48542125590597457,0.5034863785199252,-0.5200334906520373,-0.06791758824342929,1.529841240151038,0.3130726863906381,0.6684231913340739,0.39354397554254794,-1.0465310289220728,1.2120278715487185,-0.605179676693461,-1.6267347030219026
福建,罗源,1.3356539416026532,0.3916394566232506,1.6716793083411101,0.48542125590597457,-0.24414631220082236,-1.1522825670049515,-0.9407217701256231,2.116313158175558,0.4210918617096872,-0.4486636808930892,0.3949833091674066,-1.006229972062015,-0.8168973831609391,0.19400397226443114,-1.5742324082916148
福建,大田,1.5061492386312276,0.5695316825786348,1.445827372968012,1.7977183166642374,3.2333201685825297,-0.13616798000919536,-0.1809055673957676,0.16306002393883584,-0.4961092336029328,-0.6553251007566656,0.2726399510543951,-1.1184972018864618,-0.6798783415562618,-0.49761540753029715,-1.731739292482479
福建,福清,1.51528638681862,0.24458136115313645,0.9476334532754332,0.17046996132399117,0.27435449453771543,-0.13616798000919536,-0.17668489458968242,1.368396226983223,1.3973590427711358,1.7850081586658286,0.38274897335610536,-1.1156185549678863,-0.6117865523768058,-0.4391155418450678,-1.7054881451173347
福建,安溪,1.5864394982353338,1.1400372502541012,1.172860058676618,0.8528644329182873,3.28019216351483,0.5412417446546414,0.12113501043537217,0.14872495278084683,-0.8984657529192489,0.04346194306116354,0.29638895586456876,-1.2091745798215918,-0.6566425187945442,-0.9212676606378457,-1.8892461766733433
福建,龙海,1.764711091593604,0.882679608356001,0.785435796422613,-0.7743839224219577,-0.5539008577111687,-0.06842700754281208,0.5142616829934311,0.4937595223428699,-0.6671593480948934,0.9429210855434763,0.2704809506171066,-1.2984126342974345,1.7069990229849639,-0.33721255000628103,-1.849869455625627
福建,顺昌,1.085062792378215,0.5900446987928403,-0.1390930039487146,0.537913138336305,-1.0295784916224253,-1.1748628911604133,-0.525535852443251,1.6748282604294216,0.4080507626404811,-0.8013619317400638,0.2690416169922479,-0.9601716213648058,0.8057852494801202,0.8025912846349632,-1.390474376735606
福建,华安,1.650010720730595,1.811136645641039,1.7801309322631076,-0.09198945082766163,-0.8062250236541775,-0.023266359231889574,0.10042852234942773,-0.43619070980150665,-0.45441963573661726,-0.7844935296218531,0.24961061305665228,-1.2163711971180309,0.8213828142204902,-0.49101058398519054,-1.9548740450862032
福建,武平,1.4859308681740195,0.843710189162752,1.598893055920651,1.2203076099306012,0.46267582405941154,-0.7909973805175714,-0.24443024225826762,1.296116947413634,-0.38132435654731955,-0.7300206899375298,0.14669825887923638,-1.2048566094437285,0.7873645433236788,-0.5372443488009364,-1.6267347030219026
福建,尤溪,1.3103809785311427,0.8141441069563244,1.2727080047091883,1.2203076099306012,1.4241492162492306,-0.3845515457192697,0.0837095952463588,0.8834232788271639,-0.06928989303444066,-0.7984983463409147,0.29638895586456876,-1.050848999299936,0.8936034247012068,-0.21172090264925664,-1.5873579819741865
福建,平潭,1.5936325723403024,1.032727098662272,1.914975793620341,0.5904050207666357,0.7429958259557813,-0.023266359231889574,-1.1241001191182547,0.7773791468738919,0.4144546621451433,2.615436304284203,0.4115356458532849,-1.1444050241536419,-0.6913581344725379,-0.5995183993690839,-1.6923625714347628
福建,云霄,1.8930199810335806,0.8629349406287674,2.0129585312884117,0.2754537261846523,1.2998857556823131,0.8799466069865598,0.735149100395094,-0.8437919339784697,-0.7797734117590956,0.2656577519192514,0.2352172768080625,-1.3703788072618235,0.23309698653260685,-0.270220768334486,-1.9548740450862032
甘肃,通渭,0.7205489019237371,-0.8402837795505833,0.6133622386340569,2.2701452585372115,0.7072325409931773,0.8573662828310991,1.162788039688707,-0.735760819785629,-1.1251797645862573,-0.6796968008124012,-0.6341402326067471,0.2488600844369299,-0.5844777695595031,-0.9486305010390013,-0.14354487689126377
甘肃,临泽,1.2580853857139405,-0.8379346674687779,0.07848948162339256,-0.039497568397331075,-0.062185171189731006,-0.3168105732528854,0.3149382673044115,-0.755809125699353,-0.7536887184328769,-1.0620006069443841,-0.999730973320922,0.8145142039370276,0.31206453054323047,-0.10604372592755197,0.6702406914282016
甘肃,高台,1.3395420897675008,-0.839865723355139,-0.3664867011491162,-0.039497568397331075,-0.1643570004651741,-0.5651941389629598,-0.3617292233451474,-0.45247903006589607,-0.7172340245840098,-1.1031518995489762,-1.0249193117559543,0.8504972904192221,0.22999146958894393,-0.17775323870299428,0.7883708545713497
甘肃,皋兰,0.52458623441541,-0.8399141412723296,0.4142162056821532,0.9578481977789485,0.35190319598223496,-0.20390895247557964,-0.07073386790302424,-0.6379387614325799,-0.7006697203324215,-0.9805043622354596,-0.7276969182225791,0.4115036353364484,-0.255203349994213,-0.34381737355138764,0.23709675990332477
甘肃,成县,0.5776594568655818,-0.7261821700983354,0.16851543447642697,0.32794560861498284,-1.2246137902270113,0.3380188272554906,0.16747194593082654,-0.5713163269035779,-0.8082983987597973,-0.677696929792513,-0.6003158924225618,0.037279535921625334,-0.8396593061241772,-0.5476233572289609,-0.45855864527299267
甘肃,合水,-0.01897687903030768,-0.820485910007984,-0.035352917918546674,0.6953887856272957,0.8175963559646041,0.17995655816726125,0.18003246329222017,-0.23586750543712048,0.24401586866570665,-1.0257332384411435,-0.43479252556378195,0.3380981389127719,-0.7639090015485679,-0.2315353732845762,-0.051665861113259694
甘肃,东乡,0.7569030872650638,1.1237708745678647,0.7751825411934825,0.6953887856272957,1.3976864294424327,1.0380088760747892,0.8046773243456908,-0.8576595243282897,-0.44462228081549615,0.06981950709956579,0.18412093312556999,-0.7543483666866533,-0.6781527815387413,0.5770837378806111,0.2502223335858839
甘肃,民勤,0.9145674953496404,-0.8404956380489373,0.08789099430457159,0.6953887856272957,-0.8305572652367795,0.36059915141095134,0.5647304608398377,-1.1932314465568334,-1.109228028941096,-1.1717763901773057,-0.790307930903944,0.74110870751335,-0.8413167276991703,-0.41741397876828906,0.8014964282539219
甘肃,庄浪,0.5154490862280177,-0.8403309328206832,0.6016750370900226,0.6953887856272957,-0.0616584312265539,1.4896153591840133,1.905741987648622,-1.1398588329090207,-1.0534019445586436,-0.21862065953212634,-0.5765668876123891,0.2488600844369299,-0.5597392179031251,-1.1590413082616813,-0.2616750400344123
甘肃,民乐,1.2092891262451009,-0.8402242508053807,-0.06422591213895784,0.6953887856272957,1.8797085282833055,0.40575979972187387,1.0761457838499404,-1.1283779876008013,-0.4249427345878429,-0.9898685900866966,-0.9529526305130065,0.7137615617868824,-0.7344437291042467,-0.7221794080639198,0.8408731493016376
甘肃,康县,0.7578751243062758,-0.8373734351562679,0.05123372008896507,0.38043749104531344,-0.561448176586548,1.3767137384067074,2.174389671473309,-0.6964002951327029,0.3577926898476076,-0.9905576561713065,-0.6089518941717158,-0.020293402449885672,-0.5529867596346348,-0.9854288036474521,-0.8392002820675811
甘肃,永昌,0.856245272876924,-0.8403331308977695,0.2954682003260656,0.06548619646333005,1.6398217149036811,-0.36197122156380795,-0.5815126634800257,-0.5536167533216895,-0.48061910770192207,-1.0742001988709287,-0.8701909470836161,0.6878537395197025,0.21605685116215032,0.4827291158076604,0.748994133523634
甘肃,环县,0.12080204749596961,-0.8387774945335058,-0.3177864341985584,1.377783257221593,0.5384241754805339,1.1057498485411723,1.3482603077993451,-0.37247914257722226,-0.7391417735226171,-1.096906637607711,-0.4866085360587043,0.4474867218186429,-0.7939267478512202,-0.9391950388317062,0.4339803651419056
甘肃,宁县,0.09494586219973207,-0.8337373338850587,0.0049269575136610365,1.0628319626396097,0.10255078684640591,0.3154385031000288,0.5038246494874118,-0.030224283884237386,-0.3778872353442521,-0.49063032346020186,-0.4419891936880763,0.2920397882155629,-0.3835614430797875,-0.8552194251867803,0.013962007299600432
甘肃,礼县,0.6495901979152655,-0.8402179275699266,-0.09555710004206153,0.7478806680576262,-0.3516484354320012,1.6025169799613201,2.185734492283856,-1.2484689486413278,-0.3115102493232004,-0.7831129882094252,-0.6398975671061828,0.10204909158957585,-0.8272593373038587,-1.0156222827107964,-0.3929307768601325
甘肃,徽县,0.5230309751494705,-0.8389079037370833,-0.6240579602699554,0.11797807889366062,-0.8542998725322432,-0.0006860350764288155,0.2859787214728517,0.22997372141616962,-0.0345830782438305,-0.9432855529357834,-0.5744078871751006,0.04303682975877736,-0.16564119896032814,0.3128907960763491,-0.5373120873684245
甘肃,临洮,0.7699283836173035,-0.8403155462810784,-0.10747071416213404,-0.19697321568832277,-0.5902066062179395,1.0380088760747892,1.8709942929583603,-0.7513319333604791,-0.13894181305115555,-0.5547060144728863,-0.7334542527220148,0.2747679067041099,-0.8142455086409501,-0.9023967362232556,-0.23542389266926786
甘肃,靖远,0.42193912286342866,-0.6970970033167082,-0.9751160501918308,1.11532384506994,0.5519464551322544,1.42187438671763,0.6527505424343725,-1.0216224389733848,-0.7800129497884929,-0.936817320551936,-0.6751612409152269,0.4460473983593554,-0.30903885818935833,-0.7684131728796656,0.28959905463359964
甘肃,镇原,0.17815223292747412,-0.838061373063018,0.29419597727975977,1.11532384506994,-0.1790821340626589,0.5186614204991796,1.0810028478460973,-0.32726969541648615,-0.4947805460961211,-0.7110654715921519,-0.49380520418299867,0.3179476104827429,-0.44844642844155336,-1.0052432742827717,0.10584102307760451
甘肃,泾川,0.19798178856819781,-0.8396282406978738,0.08350290294993813,0.8003725504879567,0.4142000238660925,0.20253688232272302,0.523026197071209,-0.0264157124535473,-0.26014930351997806,-0.3435834279929908,-0.48157086837169744,0.2675712894076704,-0.2827656569265052,-0.7297277778297558,0.027087580982159118
甘肃,灵台,0.16065556618565918,-0.8400741492399608,0.4014831936678487,0.8003725504879567,0.6776643469407805,-0.4071318698747305,0.02552578337722083,0.6122401038842805,-0.4350245409188728,-0.8286529867941601,-0.4635791980609605,0.2301488794661884,-0.2614647203886313,-0.7825663661906082,-0.025414713748115738
甘肃,甘谷,0.6352040497053285,-0.8386534386760274,0.4397253559157195,0.8003725504879567,-0.4377114559828076,1.986382490604161,1.5112113306731612,-1.3022946939287232,-0.27058542651949113,0.20074083072985474,-0.6283828981073114,0.18121188185040338,-0.5028344104950296,-0.9297595766244112,-0.11729372952611981
甘肃,永登,0.627816568192118,-0.8403451450451321,-0.7481320519385447,0.48542125590597457,-0.03383555466408934,-0.1135876558537346,0.4216598845650465,-0.3676369275286847,-0.3879590609240572,-0.9269565753103349,-0.7766342614677841,0.4690765737079594,-0.7432833108375431,-0.3570270206416006,0.3158502019987571
甘肃,文县,1.0784529404979737,-0.8385072816051049,0.08352446605241852,0.17046996132399117,-0.7462867329188759,0.36059915141095134,1.375502510246009,-0.14973750208429626,0.07648895935612827,-1.0605392219164085,-0.6751612409152269,-0.07498769390282067,-0.510077956637592,-0.8608807025111572,-0.8917025767978826
甘肃,清水,0.5578299012248582,-0.8398659341296542,-0.3889015461768364,1.1678157275002707,-0.2588006896838493,1.0380088760747892,1.1502637629731187,-0.5213192922308542,-0.8163179323689868,-0.6633576103468724,-0.17139447221459211,0.928220757220762,-0.36072585693543857,-0.9193805681963867,-0.2222983189866961
甘肃,正宁,0.07433867692603865,-0.8375840892288212,0.42925646966179115,1.1678157275002707,0.37588165699255305,0.021894289079032944,0.07799828745620775,-0.36059853446697093,-0.7831281917645578,-0.6089747385996693,-0.4096041871287496,0.2920397882155629,-0.324017038348555,-0.7014213912078706,-0.20917274530412389
甘肃,静宁,0.5275023455390457,-0.8402663153764722,-0.038641291046711414,0.8528644329182873,-0.3671125773360335,0.9928482277638666,1.347170227321554,-0.051408439774514134,-1.0588227400676555,-0.44959808439584525,-0.6003158924225618,0.2949184351341389,-0.5507154782170517,-1.0005255431791242,-0.18292159793897994
甘肃,陇西,0.8049217171009334,-0.8394936461146386,-0.42257233069899525,0.537913138336305,0.2048326811887819,0.767044986209254,0.7771483303222553,-0.5638313474370759,0.043556223095739956,-0.47490730440505957,-0.6787595749773752,0.2200736152511739,-0.40167030843619334,-0.1334065663287076,-0.18292159793897994
甘肃,榆中,0.6803065684175628,-0.8365236525325406,-0.4786687418001134,-1.0893352170039412,0.027148354207072064,0.27027785478910626,0.8087285108232706,-0.5666956428788363,-0.2712304325673987,-0.7556609246687399,-0.7154625824112779,0.34241610929063543,-0.7278754287885334,0.03643175340260369,0.0008364336170282195
甘肃,宕昌,0.9958297919949587,-0.8383064436028279,-1.0628886588357305,-0.09198945082766163,-0.6681405353967225,0.3831794755664131,0.7758169634394936,-0.02421022006777944,-0.35754147397233815,-0.8994755671262022,-0.696751245288112,0.08333788661883434,-0.6334023990139284,-0.2362531043882238,-0.6948189715592887
甘肃,秦安,0.6309270867239959,-0.83872094674216,0.12806305422438094,1.2203076099306012,-0.4786477990912439,1.6025169799613201,1.3102294285879217,-1.2274881985092634,-1.0370597120218088,0.15245712771894887,-0.6039142264847089,0.20136241028043236,-0.8129564029715111,0.26005220771549686,-0.051665861113259694
甘肃,武山,0.7083012352044668,-0.8394029829624863,-0.4034242956969606,0.5904050207666357,-0.440187919988792,1.42187438671763,0.9896568014191871,-0.7531736617355816,-0.15878229889231005,-0.39614785074187303,-0.6607679046666382,0.17977255839111586,-0.4483850424572943,-0.40326078545734645,-0.19604717162155216
甘肃,景泰,0.4058033079793105,-0.823629581790552,-0.11734661509786845,0.2754537261846523,1.6342634290235831,0.7896253103647147,0.37512335303160144,-1.516511921321905,-0.5689275469457402,-1.0758771325921228,-0.7190609164734261,0.5295281589980464,-0.7593050527291427,0.1685282243047345,0.32897577568132885
甘肃,临夏,0.8607166432664989,-0.8405452302812837,0.11069397517692686,0.9578481977789485,0.5926233591543487,2.1218644355369274,3.359831141523055,-1.8161273444699855,0.17650107700501916,8.52729381713882,-0.7802325955299313,0.3064330228084409,-0.558388726249427,-1.3449199137453942,0.0008364336170282195
甘肃,华亭,0.38597375233858683,-0.8405452302812837,-0.5337193424309638,-0.6694001575612978,-0.5373675122997913,0.13479590985633874,0.27200481892503,-0.0023546741315212728,0.5415507958366439,-0.6572783772004045,-0.5333868788666197,0.2517387313555049,0.7150635172035829,2.6793047176659517,0.027087580982172642
甘肃,山丹,1.0603730515314316,-0.8405452302812837,-0.3455273655387815,0.012994314032999488,1.5023504463048498,-0.542613814807498,-0.14167111726310902,-0.12839802273756218,-0.425171044272112,-1.1000267025962924,-0.9342412933898397,0.764137882861955,-0.7546397179254586,1.4621300929248884,0.4208547914593334
甘肃,临潭,1.1830441261323783,-0.8405452302812837,0.8202494253761988,0.6953887856272957,-0.3628279015161565,1.692838276583165,2.4778429532757293,-0.7989802357013672,0.016715487864236555,-0.8879806352691249,-0.7708769269683484,0.17689391147254088,-0.8487444317945096,-0.8872999966915834,0.8277475756190663
甘肃,敦煌,2.1097842412238434,-0.8405452302812837,-1.1898953324415689,-0.2494650981186533,-0.4634273726925626,0.3831794755664131,0.046524104032023096,-0.553748413236968,-0.33879887076592025,-1.0673522388396421,-1.3955477201571351,0.9584465498658056,1.4055330681488445,0.17890723273275902,0.6964918387933461
甘肃,会宁,0.6554224201625372,-0.8405452302812837,-0.1527963555746079,0.7478806680576262,-0.3362078788994552,1.692838276583165,1.1513505736182055,-0.9004354028446685,-1.022726105668981,-0.9046144716149097,-0.6485335688553369,0.3208262574013189,-0.487365142461761,-0.830687223447813,0.07958987571246055
甘肃,和政,0.8148364949212954,-0.8405452302812837,0.3562653677677744,0.7478806680576262,0.09317167078564881,2.2347660563142333,2.9970094147113393,-1.758636267697968,-0.41753202680337087,-0.44970002713093454,-0.7708769269683484,0.2819645240005484,-0.6036301966483121,0.6101078556061436,0.35522692304647324
甘肃,古浪,0.6746687535785333,-0.8405452302812837,-0.14904437574312798,0.432929373475644,-0.006224946444994047,2.3250873529360785,1.6761782054091685,-1.6440000046388146,-0.9650660582489571,-0.9465095010403177,-0.8047012671525339,0.5755865096952555,-0.8068791905298698,-1.0958237114728044,0.4733570861896213
甘肃,漳县,0.838748606135109,-0.8405452302812837,-0.19954516175074674,0.8003725504879567,-0.44808901943645413,2.437988973713386,2.40681087876722,-1.5321920382300545,-0.35627890894239106,-0.8852421659256252,-0.6902742439762465,0.19848376336185738,-0.557836252391096,-0.9325902152865997,-0.2616750400344123
甘肃,岷县,1.0302399032538614,-0.8405452302812837,0.019880969083380995,0.48542125590597457,-0.5494196371289123,2.008962814759622,2.7678618549265352,-1.4815351935421388,0.20405793113690737,-0.7417391667856446,-0.7219395837231434,0.13803217807177037,-0.6284915202732081,-0.97033206411578,0.22397118622075302
甘肃,玉门,1.852000017894436,-0.8405452302812837,-1.3579150269639266,-1.1418270994342716,-0.9457324959912614,-0.926479325450339,-0.9361675743837007,0.5024573841646542,0.2502850280288333,-1.1927443075248176,-1.2242670187989195,0.9800364017551221,3.396648853573854,2.249047641013297,0.7358685598410618
甘肃,夏河,1.0372385699505873,-0.8405452302812837,1.0622844691603643,0.17046996132399117,-1.3972901566632865,2.7992741602007642,2.8161262205581363,-0.6822452179315482,3.079058234843548,-1.1811836071381918,-0.830609272399995,0.2488600844369299,-0.7789485676920236,0.027939837416038144,0.9065010177144978
甘肃,金塔,1.6523436096295037,-0.8405452302812837,-0.5197356704728338,-0.7743839224219577,-1.6375511912704819,-1.3555054844041023,-1.9964732280556006,1.0659547728429466,0.4875985974966624,-1.203962610240812,-1.0911286584994655,0.9368566979764881,0.6995942491703142,2.2924507671668537,1.0902590492705069
甘肃,渭源,0.8836567174391006,-0.8405452302812837,-0.9038715595986753,0.22296184375432174,-0.8674919569831661,1.1960711451630175,1.9840307746291455,-0.7659091782058453,-0.08723777892457767,-0.6262698772963629,-0.7082659142869835,0.2387848202219154,-0.5958341766474187,-1.0901624341484275,0.2502223335858839
广东,和平,1.4925407200542604,1.7589976580997233,0.9417575078496961,2.060177728815889,-0.4315478122345812,0.45092044803279635,0.6525164769099573,0.33243458905954393,-0.07742919565832898,-0.4269464969211153,0.06249724182498832,-1.2984126342974345,-0.7518773486338034,-0.26267239856864993,-1.639860276704475
广东,惠来,2.0458242039120975,0.6255232410416474,1.1777548829395263,1.850210199094568,-0.42735747790064743,4.470218147704896,1.070069889713261,-0.6420033522396342,-0.98776228653433,2.5659933122921297,0.1596522615029675,-1.502796565516299,-0.12481951942809139,-0.03339066693137999,-2.0598786345467794
广东,鹤山,2.024828203821919,1.7966744244137558,-0.20382543759298064,-1.92920533588923,-0.2135010528505849,-0.42971219403019223,-0.13057139766235445,1.2853981184793124,-0.4821124776039446,-0.009913326028868333,-0.07855745341119,-1.5402189754577815,1.1726960298544475,0.7639058895850535,-1.9023717503559152
广东,龙川,1.6587590541015023,1.8218322144023642,0.3793271058698871,2.16516149367655,-0.41856013433653333,1.1057498485411723,0.9124446068565496,-0.06450620981664375,-0.4749862212293817,-0.10549236799941342,0.08552657982273114,-1.3487889553725065,-0.05514642729412338,0.14588311500722648,-1.6529858503870596
广东,紫金,1.7606285360205138,1.574555490305894,0.20484926215483723,2.4801127882585337,-0.35245033806251114,1.7379989248940866,1.440473404865008,-0.02157802872140532,-0.35030168655259225,-0.43200346088814096,0.08048891213572527,-1.4164371579590325,-0.2364192388109582,0.24684256062528373,-1.836743881943055
广东,怀集,1.7404101655633053,1.6544366178006413,0.16346966849616082,2.3751290233978724,0.7150628843263839,1.5573563316503976,0.1295867105177733,-0.41414761771442127,-0.64035479308658,-0.1808732685541155,-0.1354111315931182,-1.3746967776396863,0.053997852718383324,-0.6702843659237968,-1.7054881451173478
广东,大埔,1.7730706101480265,1.4705872064846468,-0.015870654828075526,1.2727994923609318,0.16388847628985015,-0.24906960078650217,0.10482413120519245,1.7470889112538275,0.2766267256990928,-0.4350187862689763,0.1898782676250057,-1.312805868890312,-0.11935616682904014,0.35440682978844756,-1.8892461766733433
广东,连州,1.5224794609235883,1.5283123246039483,-0.6223329120715734,0.9578481977789485,-0.30789757132628853,-0.9490596496058007,-0.13339775930612066,2.438981150007794,0.13577711681971033,-0.5202926723583227,-0.12101779534452946,-1.2509149601409375,-0.674592394451719,0.3308181742702099,-1.206716345179598
广东,英德,1.6871425357048913,1.605404128595992,-0.050630376025462887,0.9578481977789485,0.7164544212440311,0.06705493738995547,0.19592643885260386,1.2262994313459759,0.2570020736031763,-0.5274697404393379,-0.04761178047672194,-1.3372743676982044,-0.7124061607552648,0.17230240918765277,-1.6004835556567587
广东,连平,1.5522237943846737,1.6384149710235765,1.2338297309381652,1.6402426693732457,-0.4907942654063069,0.8799466069865598,1.1008932401862639,0.31202881263014953,-0.19812018225126385,-0.6035907375837872,0.030112235265661595,-1.3099272219717364,-0.7000675779192052,0.17513304784984107,-1.71861371879992
广东,五华,1.7098882024692503,1.6235440988912522,0.7586975493476992,1.3252913747912625,0.5168592841522366,2.3025070287806177,0.7364528099428982,-0.3406526866517528,-0.26312855776060395,0.2206630746789546,0.12294925406906372,-1.373257454180399,-0.4356781437156808,-0.35325283575868266,-1.7842415872127801
广东,阳山,1.5821625352540016,0.7588512135110733,-0.41612496305754454,1.6927345518035763,0.4163777398332588,-0.1813286283201179,0.3159392448410107,1.5838729085946441,-0.26093154489722775,-0.6671459091939799,-0.1030261250337925,-1.294094663919571,0.2203538700602805,-0.13718075121162554,-1.4167255241007501
广东,罗定,2.122809537576083,1.560670310481256,-0.07679720088466306,1.6927345518035763,0.10725213756252706,0.4283401238773356,-0.38752738592378094,1.051265252046884,-0.10181840887022142,0.6282910374990912,-0.17931080715131736,-1.5402189754577815,-0.2671122309404595,-0.5429056261253135,-1.9154973240384872
广东,遂溪,2.577917280271514,1.1404887071000331,-0.7208439457503978,1.6927345518035763,0.5021655977167335,1.06058920023025,-0.5354814573424221,0.3166598179866815,-0.7458912565384408,0.639692801898661,-0.274306826392008,-1.7402849362987831,0.10992048437833474,-0.0003665492058471264,-2.204259945055072
广东,新兴,2.0833448337028777,1.6565390892171543,0.5030022801426012,0.11797807889366062,0.32626589717743215,0.3380188272554906,0.2763801275694222,0.8871470139453321,-0.9589665716566536,-0.12743224973051312,-0.13181279753097103,-1.550294239672796,0.8561285090307709,-0.14472912097746177,-1.9154973240384872
广东,高要,2.023467351964223,1.7501291115692892,-0.32603432089707013,0.11797807889366062,1.0821691914991156,0.586402392965564,0.08388194267848051,0.7587627369412485,-0.9276307555922457,0.044383019637148115,-0.11598012765752258,-1.502796565516299,-0.8310038823436579,-0.4862928528815431,-1.9286228977210593
广东,平远,1.5425034239725544,1.790460280883512,0.7264607111404443,1.4302751396519235,-0.34432910848098314,0.17995655816726125,0.7843937346228339,0.050268761872182204,-0.6945864524608583,-0.5587779416778514,0.13086558900578793,-1.2811407527859808,0.08769875807657578,0.6553980742011599,-1.6792369977521906
广东,德庆,1.9845858703157453,1.7318255813632215,0.3339691198036927,0.8003725504879567,0.12181217355961309,0.6767236895874089,0.31813044148197006,0.5769791618705766,-0.3252537437598577,-0.6302742006086425,-0.1649174709027276,-1.485524684004846,-0.7303308681588935,0.13267346791701334,-1.823618308260483
广东,海丰,1.963589870225567,1.5689217011755694,0.21855261378073054,0.48542125590597457,0.6986474657724325,1.4896153591840133,0.1174098535270152,0.6018862976596224,-0.09531719704111666,0.4647595108250611,0.09128391432216684,-1.511432506272026,-0.7313744298912965,0.867695973865299,-2.0730042082293516
广东,饶平,1.9245139811688472,1.0858028113021285,1.5879497814121684,0.48542125590597457,-0.5160463364768462,1.7154186007386258,1.5561993239350678,-0.6934496529396221,-0.8445884102134539,0.9222454220580321,0.21146827199788984,-1.410679864121881,0.07118592831090406,0.5600999059074799,-1.9548740450862163
广东,翁源,1.6414567947679302,1.880532610686331,0.24869783104744755,1.1678157275002707,0.45027778044850314,-0.542613814807498,-0.30953874233690554,1.6173245966674155,0.6269373701593789,-0.5692008158177385,0.004923896830629241,-1.312805868890312,-0.7738535309985264,0.01567373654655465,-1.6923625714347628
广东,广宁,1.854138499385103,1.6853413717956087,0.3961031995991473,0.8528644329182873,0.49585257994909926,-0.27164992494196294,0.22959250013289428,1.3408788012103827,-0.6147753752911208,-0.40265631658321216,-0.11741946128238125,-1.4164371579590325,-0.7473961717828962,-0.09660826372025677,-1.744864866165051
广东,博罗,1.8383914993174688,1.8287316685059478,0.324599951776233,0.22296184375432174,0.31752358614678394,-0.13616798000919536,-0.21669497628840342,1.657824243914292,-0.7667173415630522,-0.16820474660370546,0.015718899017071825,-1.4812067136269824,0.9307124799054591,0.014730190325824994,-1.9811251924513473
广东,徐闻,2.8164551701849243,1.2947443742114624,-0.14904437574312798,1.5352589045125846,0.4410165912451733,1.42187438671763,0.4461621034485487,0.19345659780162308,-0.6150997497059294,0.17047654039726834,-0.2800641608914437,-1.891413899524,-0.8418692015575013,0.24589901440455408,-2.4405202713413683
广东,丰顺,1.774237054597481,1.2980296941490992,0.9098980239358384,1.5352589045125846,-0.5051420330600225,0.9702679036084048,0.5358263659212213,0.968387223427463,-0.3099520045382166,-0.321362399447522,0.1524555933786731,-1.3962866295290035,-0.09750275643283521,-0.17680969248226497,-1.9548740450862163
广东,新丰,1.649038683689383,1.7511131921273584,0.9907380951324918,1.2203076099306012,0.6921300414519234,-0.1135876558537346,0.1886983374167519,1.246523955119538,0.6705045968498747,-0.7822669344997776,0.00996156451763612,-1.3531069257503698,-0.7583228769809987,1.3847593028250686,-1.8629950293081992
广东,四会,1.9573688331618109,1.6843498894628623,-0.7624607335363512,-0.7218920399916272,1.2323215281666813,-0.6780957597402656,-0.41478866239455325,2.244157956788739,-0.24711569001419026,0.2171122613597816,-0.0994277909716443,-1.459616861737666,2.002020677193573,0.8195751166080943,-1.7842415872127801
广东,南澳,2.0357150186834927,0.24435739941239568,0.7055229386325889,1.5877507869429153,-0.6350109502500074,5.215368844835117,2.2395081172930893,-1.40546874042484,-0.8833524003769773,1.0041053179773045,0.2129076056227485,-1.4466629506040756,0.09310072469136801,-1.3543553759526892,-2.0861297819119233
河北,邯郸,-1.3349206254230332,-0.8106887191062037,-8.641111646735597,-7.913279932946908,-9.428832432221812,-7.407032358067715,-2.873042758539808,-2.938038740049855,-1.758070428100904,2.0137259098617437,0.030112235265661595,0.4532440156557939,0.12303559991527063,-1.7157335784920904,0.39460364409418897
河北,滦县,-1.759895219840894,-0.8048652902488762,0.20838561096151925,-0.6694001575612978,-0.5895226304448579,-0.3845515457192697,-0.9206098466197413,-0.8713587007520649,-0.2681700847230707,0.6839654247394779,0.33381163011090137,0.9037522584128695,0.7602399184591532,-0.5740426514093873,0.9590033124447865
河北,怀安,-1.7542574050018644,-0.7836154552928137,0.5264413725381087,0.32794560861498284,-1.73053573217325,-0.8813186771394164,-1.366370471246561,0.2232396817723756,0.14478100201845348,-0.7081047827633936,0.025794234391084563,1.0361700166673455,-0.5890854015379839,-0.38910759214640384,1.1033846229530782
河北,滦平,-1.8537939980219673,-0.7022237922908751,0.6002195276726382,-0.3019569805489839,-0.8726807387099893,0.1573762340118005,0.18963446327138292,-0.7444078301678603,0.11472396970473317,-0.8499084378188049,0.2352172768080625,1.0735924266088275,-0.30575286645197386,-0.5825345673959528,1.3658960966045186
河北,涿鹿,-1.9231974427645,-0.797321881126771,-0.008582326189913564,-0.6169082751309672,-1.2175460405718386,-0.6329351114293431,-0.8092269465961186,0.18257262755865372,0.5624804311552131,-0.7855128579040286,0.08336757938544262,0.9944296363480001,-0.8149459227213454,-0.34193028110992846,0.9852544598099301
河北,昌黎,-1.6710510342741225,-0.6654583936161763,0.9753312584106968,-1.246810864294933,-1.003406591063949,-0.8813186771394164,-1.11004160964921,-0.3475506089051956,0.13619256558944576,0.42095922879958997,0.36763597029508677,0.896555641116431,-0.06057601760183221,0.3213827120629147,0.814622001936481
河北,兴隆,-1.9294184798282563,-0.8204576963336011,0.2682016572403979,-0.2494650981186533,-1.061914035929127,0.29285817894456806,0.8151669476610371,-0.6135066586456963,0.4398669023575861,-0.8543763542588986,0.24889094624422242,1.0016262536444385,-0.466240997558553,-0.37589794505619084,1.0115056071750614
河北,平山,-1.5928992561606823,-0.790610278573317,0.3239854033555599,0.432929373475644,-1.3839172510309738,0.3831794755664131,0.5852532933222248,0.0759142504939477,-0.3707647217513985,-0.583829871892257,0.00996156451763612,0.6878537395197025,-0.7532609887190013,-0.9363644001695178,0.6571151177456295
河北,隆化,-1.6825210713604233,-0.04919592649076856,-0.2212376428453943,0.432929373475644,-0.35975394143253936,0.021894289079032944,0.12738175333084997,-0.3947362134941104,0.02865496151699705,-0.9449232177477138,0.2632842824928122,1.129726041521051,-0.40999547562139926,-0.5759297438508462,1.5234029807953833
河北,赤城,-1.8504890720818465,-0.7794267634642149,0.5707104219290747,0.432929373475644,-1.0919617992017294,-1.0845415945385681,-1.4786458993554241,0.8163847184091452,0.20839207235631063,-1.0362267532735248,0.12726725494364075,1.0721531031495402,-0.8211551150291434,-0.6061232229141904,1.0508823282227902
河北,涞源,-1.7933332940585844,-0.8084052181198947,0.6259766535847218,0.11797807889366062,-1.028241987238244,-0.36197122156380795,-1.0271499881652881,0.5675364019812786,0.8669719419298901,-0.819659873597736,0.044505571514251364,0.8461793200413585,-0.8212613127819116,-0.4013736930158875,0.7621197072062063
河北,怀来,-1.9741321837240056,-0.773094886255096,-0.1417883917586854,-0.5119245102703062,-1.0914900917720183,-0.8361580288284939,-1.2579121640908628,0.3543057428633877,0.07302064830548313,-0.5370661963773913,0.10495758375832677,0.9973082832665751,-0.7960138713160263,0.5591563596867504,0.9852544598099301
河北,易县,-1.9494424428772223,-0.8371183979929567,-0.09263529965605263,-0.5119245102703062,-1.0647049715549182,0.586402392965564,0.879899689464741,-0.7330211355447539,-0.3925065407008924,-0.42754562596390355,0.10351825013346809,0.8461793200413585,-0.8088214430718246,-0.8825822655879358,0.9196265913970699
河北,赞皇,-1.5351602559126931,-0.8403729371704848,0.9879241102588812,0.8003725504879567,-0.0436234838305963,0.6767236895874089,-0.15428109084415545,-0.6140922054199567,-0.7825206135337434,-0.46356339660113394,0.022915567141366198,0.6043729788810115,-0.5129201277087839,-0.8240823999027065,0.5389849546024814
河北,磁县,-1.2556024028601387,-0.7497516087040846,0.6702241398732073,0.48542125590597457,0.2864223429478262,1.5347760074949357,1.3999965545477502,-1.1411376710918422,-0.4720730894656202,1.0239374484903385,0.022195900328937375,0.41438228225502444,0.22717876379019644,-1.0118480978278783,0.4339803651419056
河北,蔚县,-1.7091548862896304,-0.815135940932936,-0.33297763989555546,0.48542125590597457,-0.9942318815560668,-0.5651941389629598,-1.0330833720932722,1.1765259416154465,0.6306052962345216,-0.6879490636202447,0.03658923657752612,0.9181454930057475,-0.43249036955311077,-0.6976472063249526,0.9721288861273578
河北,涿州,-2.0581161840847173,-0.7631801735058064,0.16611114854993303,-1.456778394016255,-0.8095977317766127,0.021894289079032944,0.44261270004804715,-0.7168010367661021,0.017449073079265135,1.9023719421578051,0.1373425903176535,0.8648905250120991,0.1843644952089125,0.6874786457059632,1.0771334755879216
河北,张家,-1.8353252942389404,1.7743267166331984,-1.1099609115490656,-2.401632277762204,-0.7568687029253973,-0.6555154355848039,0.07544822667595305,-0.3558036465007901,-0.18450144720491782,2.056899864706814,0.05889890776284011,1.057759868556662,7.102520723289844,1.128114730786643,1.1033846229530782
河北,平泉,-1.6088406636365582,-0.8083632739913832,-0.019698105518234425,-0.09198945082766163,-0.13601524573002788,0.24769753063364552,0.42054092056503406,-0.8181942759186601,-0.36833690401594693,-0.7222206706127628,0.33237229648604266,1.083667690823842,-0.3231944661594844,-0.42307525609266616,1.5234029807953833
河北,涉县,-1.200001884102816,-0.7824474332618802,1.6618896598152948,-0.09198945082766163,0.6200452844015588,-0.023266359231889574,-0.9313720922368076,0.10448017253282195,-0.38653555628060887,-0.2839171573237708,-0.028180776541126308,0.4460473983593554,0.46216308381397336,-0.7731309039833131,0.2764734809510409
河北,乐亭,-1.7031282566341164,-0.6348049439993774,-0.1746182152841342,-1.719237806167908,-1.1775531123228247,-1.016800622072184,-1.2395448325757463,-0.5009895412209896,-0.4103770757690366,0.00496435553930949,0.3482049663594911,0.856254584256373,0.6206709030683571,-0.11736628057630581,0.867124296666782
河北,安新,-1.9126994427194108,-0.82202134212944,0.9726143074982456,-0.406940745409645,1.016169460292024,0.17995655816726125,-0.19749138505916594,-0.9606905826181384,-0.4912922735430262,0.9423201354397677,0.13446392306793614,0.784288411291984,-0.5299271146477406,-1.167533224248247,1.1033846229530782
河北,玉田,-1.9278632205623172,-0.8324514587895205,-0.2738731759985093,-0.7218920399916272,-0.5047646671162533,-0.27164992494196294,-0.39034952403363793,-0.7028944267473182,-0.2810203019251012,0.8562769765136737,0.264003949305242,0.9224634633836111,-0.6979018803945475,-0.6693408197030674,1.1165101966356503
河北,曲阳,-1.7443426271815028,-0.8266552800659352,1.126542514550075,0.5904050207666357,-0.48244504390041876,1.1057498485411723,0.255569822295117,-0.8507802308200296,-0.4064009939998257,0.7812682795559451,0.04594490513911004,0.74110870751335,-0.5569203735059517,-1.121299459432501,0.7358685598410618
河北,抚宁,-1.6877700713829678,-0.6002777900115239,0.0507054240782099,-1.0368433345736106,-0.8939154348374878,-0.4974531664965755,-0.7902145043370526,-0.8089186712564083,-0.08813854172262306,-0.14943434388935545,0.3719539711696638,0.9224634633836111,-0.7716743285573318,-0.5881958447203298,0.9065010177144978
河北,宁晋,-1.5400204411187528,-0.8405452302812837,0.5096221526038902,-0.039497568397331075,0.46843851649238344,1.2638121176294006,1.164449659674601,-1.1055587817110308,-0.537429543673928,1.3682068355357184,0.061777575012558476,0.597176361584572,-0.02111710692014524,-1.1750815940140829,0.6702406914282016
河北,武安,-1.2824306251975885,-0.8405452302812837,-0.10203681233723165,-0.039497568397331075,-0.0228919422947896,0.9702679036084048,0.6997714179371395,-0.607531111018603,-0.5898047833203789,0.31305549893786566,0.00996156451763612,0.46475860333009694,1.9043218139461573,-0.400430146795158,0.39460364409418897
河北,定州,-1.7657274420881655,-0.8405452302812837,0.10047306460151699,-0.35444886297931444,-0.876155650108862,1.0154285519193273,1.4463862160955607,-1.1475958039150906,-0.3638867365635543,2.1943963745929143,0.06537590907470567,0.726715472920473,-0.7350060247200592,-0.6919859290005755,0.6964918387933461
河北,康保,-1.5219405521522105,-0.8405452302812837,-0.4542916544467352,-0.35444886297931444,-1.6539461691691437,-0.7909973805175714,-1.2792972787059755,-0.38563128841610134,-0.610003328611726,-0.9347449239615381,0.04018757063967433,1.2060101848633036,-0.8473982371597096,-0.5919700296032478,1.851542322859684
河北,安国,-1.79216684960913,-0.8405452302812837,0.9562371311648606,-0.6694001575612978,-0.7082278051316784,0.20253688232272302,0.7043205726869763,-0.5759971767404642,-0.2108356593117585,1.7864633701089936,0.09056424750973699,0.712322238327595,-0.8012525512126896,-0.5957442144861659,0.7883708545713497
河北,吴桥,-1.647722145285036,-0.8405452302812837,0.23497291631907505,-0.98435145214328,-0.8188038884464767,-0.3168105732528854,-0.5492450006529345,-0.4879713209555871,-0.5609092609304538,0.5475732264932552,0.16684892962726186,0.597176361584572,-0.5445394343407536,-0.270220768334486,0.6046128230153416
河北,饶阳,-1.7733093310096186,-0.8405452302812837,0.7927456881632541,-0.9318595697129495,-0.4835928653127161,0.3380188272554906,0.6354844633254532,-0.6322645463458093,-0.49553159762579313,0.5818057556543088,0.12007058681934638,0.6849750926011264,-0.641347586956571,-1.0090174591656897,0.7883708545713497
河北,清河,-1.479948551971855,-0.8405452302812837,0.7246817551858638,0.38043749104531344,1.7715538764410257,0.6089827171210247,-0.09275659989547248,-0.6273651863627242,-0.882656242979042,1.6303599281777768,0.11575258594476935,0.5180135713237445,-0.31186384118495764,-0.9873158960889112,0.5652361019676259
河北,巨鹿,-1.4729498852751288,-0.8405452302812837,1.3968899118901759,0.06548619646333005,0.3527758547272006,0.6089827171210247,-0.049604208967933223,-0.6623190058207117,-0.5784678975228206,0.979293328666668,0.06969390994928269,0.539603423213061,-0.6223467832488819,-0.9948642658547471,0.6308639703804859
河北,故城,-1.5380763670363289,-0.8405452302812837,0.29217982719790087,0.06548619646333005,0.09002695458757375,0.40575979972187387,-0.20454441420230937,-0.9263910348997482,-0.9162876318251718,0.7069980374434538,0.1373425903176535,0.5583146281838025,-0.45962236073574736,-0.7920018283979033,0.5521105282850536
河北,献县,-1.75795114575847,-0.8405452302812837,-0.3264224567417064,0.06548619646333005,0.848980623621389,0.6315630412764864,0.13164738633661935,-1.0543632138516117,-0.6937368410128405,0.5979665042740387,0.14813759250409608,0.6777784753046879,-0.13530056238047347,-1.052420585319247,0.8014964282539219
河北,崇礼,-1.7851681829124044,-0.8405452302812837,1.2847617789953785,-0.5644163927006367,-1.0409230553069795,-1.2651841877822574,-1.9079243872641771,0.4955702867226014,0.032653499976463704,-1.0323385521729893,0.0869659134475898,1.0793497204459785,-0.7032099264534235,-0.3740108526147317,1.3133938018742306
河北,阜平,-1.6611362564537606,-0.8405452302812837,1.519282081565344,0.7478806680576262,-1.4638795221575154,-0.0006860350764288155,-0.3844397101497306,0.2671300123823272,-0.07463084253365379,-0.9169705904962311,0.008522230892777451,0.7742131470769695,-0.7055425938552656,-0.5580023656569856,0.6702406914282016
河北,河间,-1.8143292941487625,-0.8405452302812837,0.17322697236825668,0.11797807889366062,1.0369874815232785,0.7444646620537922,0.6346272221848133,-1.1766027740831584,-0.523150831452837,0.9338974020355474,0.1452589252543777,0.7137615617868824,-0.7448633860723698,-0.8410662318758376,0.8277475756190663
河北,张北,-1.72704036784793,-0.8405452302812837,-0.49621032566740575,-0.19697321568832277,-1.3860635198361595,-1.1748628911604133,-1.7484252177818518,0.32181066602973435,-0.5296171106526548,-0.8990222510188052,0.04594490513911004,1.1052575427131586,-0.8185149038461637,-0.07113251576056014,1.4709006860650824
河北,文安,-1.9504144799184342,-0.8405452302812837,0.34351079265099066,-0.19697321568832277,-0.05504666542010158,0.24769753063364552,-0.7230656286509409,-1.038021273009872,-0.6329515708655268,0.4568005044935448,0.1733259309391274,0.7770917939955445,-0.16568109985009646,-0.9656143330121325,0.9983800334925023
河北,徐水,-1.9457487021206168,-0.8405452302812837,-0.1043979720587672,-0.19697321568832277,-0.6366462026730058,0.586402392965564,0.9509005643195301,-1.2090628590846437,-0.6847154894994538,1.6877758813753698,0.11431325231991067,0.798681645884862,-0.8420699337260282,-0.700477844987141,0.9852544598099301
河北,肃宁,-1.8242440719691242,-0.8405452302812837,0.6579762976646996,-0.19697321568832277,0.4043256150041379,0.6541433654319472,1.0259801467438268,-1.1654378622236476,-0.5442014833800078,1.1995384487610858,0.12726725494364075,0.7137615617868824,-0.7892356309341473,-0.6731150045859853,0.8539987229842099
河北,任丘,-1.9070616278803816,-0.8405452302812837,-0.9087556023103421,-0.5119245102703062,0.9367339291286597,0.27027785478910626,-0.01800658935916174,-1.1131029200304785,0.06656434985689022,1.7378593079072764,0.14669825887923638,0.755501942106228,-0.5433252195721103,0.47046301493817694,0.9458777387622144
河北,大名,-1.3080924030855836,-0.8405452302812837,0.24189467221508,0.8003725504879567,0.2861707656519808,1.986382490604161,1.3174459493662791,-1.1297081807027753,-0.8742387269147605,1.656188364143174,0.07832991169843677,0.4043070180400099,-0.3243116910729981,-1.3826617625745745,0.49960823355476575
河北,辛集,-1.628670219277282,-0.8405452302812837,0.34642181148575935,-0.8268758048522883,-0.95811481602118,0.06705493738995547,0.6434232084023693,-0.38991514458875365,-0.4795623956659881,1.1005317826694307,0.08336757938544262,0.640356065363206,0.7109371513416926,-0.5570588194362561,0.6439895440630572
河北,邢台,-1.4138500331694428,-0.8405452302812837,1.0461444869542578,0.17046996132399117,-0.8364457463176741,0.22511720647818378,0.07060655814211245,-0.3158691551043927,-0.49766498320011066,-0.5048576374811549,0.030112235265661595,0.5180135713237445,-0.7292750292296386,-1.0722350559545668,0.4208547914593334
河北,威县,-1.4684785148855537,-0.8405452302812837,0.8576075004223989,-0.1444813332579922,1.0060906448771956,0.29285817894456806,-0.7324046795834671,-0.700545442675683,-0.9744155269588616,0.8555971106144445,0.08552657982273114,0.5050596601901539,-0.6344060598565631,-1.1797993251177306,0.6046128230153416
河北,曲周,-1.3642761440676339,-0.8405452302812837,0.5162420250651794,1.1678157275002707,0.2425142430322102,1.3992940625621682,0.5187991208427443,-1.1360331431719464,-0.88266747132417,1.1461656062164916,0.06393657544984699,0.47627319100439897,-0.40456342987432015,-1.3024603338125664,0.5389849546024814
河北,盐山,-1.7173199974358107,-0.8405452302812837,1.143297045176856,-0.45943262783997557,0.9272526097914652,0.9025269311420215,0.1310387887245345,-1.0838132460672711,-0.7530249984764225,0.8381168992808632,0.22730094187133829,0.6590672703339465,-0.3418564192340638,-1.0703479635131077,0.6964918387933461
河北,隆尧,-1.4737275149080984,-0.8405452302812837,0.15293609293479368,-0.45943262783997557,0.7588766427560578,1.6476776282722416,1.6176005149421928,-1.3724608696190594,-0.7181073403161866,1.299733805531409,0.050982572826115895,0.5583146281838025,-0.7988001811415424,-1.4647502837780415,0.6177383966979006
河北,沽源,-1.6345024415245535,-0.8405452302812837,-0.25124269994599235,-0.45943262783997557,-1.6278882645728479,-1.0845415945385681,-1.7964018381354756,-0.010350181911952647,0.3051928832985969,-0.989579243927555,0.11791158638205786,1.1801023625961236,-0.715030411582337,-0.5372443488009364,2.009049207050549
河北,深州,-1.7062387751659946,-0.8405452302812837,0.5782143815920345,-0.7743839224219577,-0.6687930640078235,0.29285817894456806,0.6673687382679673,-0.5853362198322576,-0.5651972411754421,0.40587587105602724,0.10711658419561527,0.654749299956084,-0.792404375441597,-0.825025946123436,0.6833662651107608
河北,尚义,-1.6284758118690394,-0.8405452302812837,0.029357952623238984,-0.09198945082766163,-1.3251818142414356,-1.400666132715025,-1.9579922018752205,0.6956973857829684,-0.6128515854925255,-0.974282977770213,-0.006590772168242166,1.095182278498144,-0.8477137611188009,-0.16360004539205183,1.5365285544779554
河北,黄骅,-1.7721428865601643,-0.8405452302812837,0.25366812616903356,-0.09198945082766163,1.3588491843962116,-0.09100733169827285,-1.097756575693152,-1.1105354258126445,-0.7411716088029766,-0.19020825903469163,0.23665661043292116,0.7051256210311555,-0.749521354557943,0.2619393001569558,0.7358685598410618
河北,新乐,-1.7050723307165403,-0.8405452302812837,0.6503106147331416,-0.09198945082766163,-0.4622874130707607,1.6702579524277024,1.7891061013855658,-1.3193193531074336,-0.20969036810870376,2.1138803905790136,0.044505571514251364,0.7022469741125805,-0.08662884318119551,-0.8872999966915834,0.8408731493016376
河北,临城,-1.4966675890807002,-0.8405452302812837,2.140439593148804,-0.09198945082766163,-0.5965903801000305,0.3831794755664131,0.2170588226482812,-0.9213046322454359,-0.2763680242604048,-0.28960043261607105,0.031551568890520264,0.5698292158581044,-0.8273305450455991,-0.7325584164919443,0.5783616756501971
河北,高阳,-1.8658472573329954,-0.8405452302812837,1.0402793230797596,-0.406940745409645,-0.0730658892350694,0.5638220688101021,0.55372706506083,-0.9176685025775867,-0.12196954559325046,1.2156170072516808,0.12366892088149356,0.749744648269077,-0.8040143066445021,-0.7787921813076901,0.9721288861273578
河北,南宫,-1.547019107815479,-0.8405452302812837,0.7890799607416933,-1.0368433345736106,0.0006383966573036572,-0.023266359231889574,-0.3021426532458711,-0.11365261570595121,-0.5608805662706823,0.7625187958740861,0.09488224838431403,0.5583146281838025,-0.47181607264895564,-0.9495740472597309,0.6177383966979137
河南,光山,-0.3333336581582492,0.6649870206707499,0.15029461288102267,0.9578481977789485,1.6817014728715398,0.3154385031000288,0.0515262668544323,-0.06488155385809775,-0.8771131832675253,0.5230202400604999,0.060338241387699804,-0.20884477561658418,0.059092889411880546,-0.4815751217778955,-0.051665861113259694
河南,商城,-0.21474513913039245,0.6649870206707499,-1.0232017687217154,0.9578481977789485,1.3472373198348222,-0.45229251818565297,-0.3112800644949663,0.5436208692635187,-0.8676252316343757,0.052800380797273214,0.09632158200917372,-0.24050989172091572,0.10562346548020456,-0.6155586851214855,-0.07791700847840365
河南,罗山,-0.3413043618961872,0.6649870206707499,0.03411261672002827,0.642896903196965,1.0368538310848603,-0.4071318698747305,-0.28375679267876386,0.49590837327368986,-0.7120577574800074,0.07441794613785843,0.03371056932780878,-0.18293695334940419,-0.7451862763495721,-0.16265649917132216,-0.051665861113259694
河南,潢川,-0.33197280630055265,0.6649870206707499,-0.22808392788272025,0.32794560861498284,1.1313918617894763,0.06705493738995547,0.02931783561298634,-0.06825562239438836,-0.6990540862278943,0.6498022510443155,0.06969390994928269,-0.1930122175644187,0.3059873181015892,-0.1928499782346664,-0.012289140065543526
河南,固始,-0.25129373187996157,0.6649870206707499,-1.6575019912665945,1.0628319626396097,1.6858367746720067,-0.5200334906520373,-0.6398216826931319,1.0027119451258302,-0.8132451085856274,0.8198952375701253,0.11647225275719919,-0.1858156002679802,-0.7537803141458325,-0.45798646625965783,-0.038540287430687485
河南,息县,-0.3998209917771461,0.6649870206707499,-0.26820208004633106,0.432929373475644,0.3037811763611988,1.128330172696633,0.6420560096028903,-0.6007079554856912,-0.25349588523469363,0.8027031921511539,0.04810390557639855,-0.16134710146008768,-0.03427519264606248,-0.5466798110082315,-0.025414713748115738
河南,新县,-0.253043398554143,0.6649870206707499,0.5882304426938867,0.8003725504879567,1.4773656761111469,-0.6329351114293431,-0.7590404643065154,0.6384885093264908,-0.7338981363478467,-0.3372949856455341,0.05817924095041129,-0.2649783905288082,-0.6694973577582218,0.12040736704752984,-0.14354487689126377
河南,淮滨,-0.3220580284801908,0.6649870206707499,1.6402618680280872,0.22296184375432174,0.13672599012898085,0.8799466069865598,0.13247043047689375,-0.7089105044821741,-0.3267321425350428,0.9890944212802654,0.09632158200917372,-0.1498325137857857,0.01906922767501082,-0.7589777106723704,-0.038540287430687485
河南,三门,-0.4221778437250207,1.3030315886242216,0.5847803462971238,0.2754537261846523,0.5201848215317013,-1.3329251602486416,-1.2263416568449308,1.8172263886069897,-0.33087415429336714,0.20292671217712677,0.526682335842001,-0.6262485788100408,0.6814853838139083,-0.6514134415092068,0.0008364336170282195
河南,郏县,-0.6354427705669204,-0.8405452302812837,1.0807101402293264,-0.039497568397331075,0.37827164130308977,0.767044986209254,0.4566472307439268,-0.518895289698888,-0.3785035467323883,1.486633341925139,-0.06056578310045304,0.07182329894453235,-0.7412575733569959,-0.8174775763576,-0.07791700847840365
河南,内黄,-1.2089446248819655,-0.8405452302812837,0.3743999369532595,-0.039497568397331075,0.7806773877992096,1.2863924417848625,1.1094102006797213,-0.4421959627249726,-0.9165596072960498,1.1080447971721212,0.060338241387699804,0.35680934388351343,0.051665185316541226,-1.274153947190681,0.38147807041160414
河南,柘城,-0.7711391415201075,-0.8405452302812837,0.5923705583700029,1.2727994923609318,1.3342339183557834,-0.36197122156380795,-1.0881263734069149,-0.053667804477432274,-0.7535215408498601,2.236180126912974,0.08912491388487832,0.08621653353741036,-0.05520781327838238,-0.7967195595015507,0.0533387283473166
河南,卢氏,-0.28375976905644024,-0.8405452302812837,-0.22093575941067722,-0.35444886297931444,-0.9364634449974373,0.06705493738995547,-0.10723841645669298,0.005258189153262914,0.10666451309064395,-0.8928911286482161,-0.21673348139764995,0.08333788661883434,-0.8415008856519473,-0.826913038564895,-0.19604717162155216
河南,南乐,-1.2592961436167442,-0.8405452302812837,0.5509801831600862,0.9578481977789485,0.550067487203905,1.2863924417848625,1.2686754408806609,-1.2463644039152673,-0.972781178945788,1.936932233332275,0.08192824576058395,0.3755205488542539,0.30304079085715707,-1.3062345186954845,0.44710593882447686
河南,夏邑,-0.771916771153077,-0.8405452302812837,0.2616141294328294,0.9578481977789485,1.4990327707158806,-0.6103547872738823,-1.4882142473063384,0.48769913840325535,-0.4753043576746746,1.6429248899720952,0.1488572593165249,0.10924570888601436,-0.10474630257539752,-1.0552512239814356,0.07958987571246055
河南,上蔡,-0.5326012516066971,-0.8405452302812837,0.3888148709609853,0.642896903196965,0.9816876471801356,0.1573762340118005,0.10370353228882813,0.3324066459417696,-0.5603902618667602,2.0909668880486647,0.014999232204641978,-0.028929343205611656,-0.2370330986535482,-0.9401385850524357,-0.025414713748115738
河南,泌阳,-0.36716054719242475,-0.8405452302812837,0.46665767091295074,0.32794560861498284,0.9778510934184845,0.27027785478910626,-0.2156324169025403,-0.11547923969306781,-0.22421859911041678,0.09952955674592395,-0.05336911497615866,-0.10809213346644019,0.004029661531555171,-0.7136874920773543,-0.14354487689127682
河南,确山,-0.4359807697102303,-0.8405452302812837,0.20299483534157767,0.32794560861498284,0.9588098368391432,-0.5877744631184205,-0.5631175383869232,0.4343202312604483,-0.46709768498001863,-0.144925746492544,-0.0029924381060949788,-0.09657754579213819,0.3151338297561806,0.22797163621069366,-0.012289140065543526
河南,新野,-0.26509665786517095,-0.8405452302812837,0.812508271585962,0.32794560861498284,1.2827313288218165,0.29285817894456806,0.5844059979227267,-0.24651609896730717,-0.6238653444691785,1.546317101700657,-0.12317679578181798,-0.13687860265219517,0.7003922669656812,-0.7882276435149852,-0.24854946635184005
河南,鄢陵,-0.7738608452355009,-0.8405452302812837,0.4406417877711097,0.32794560861498284,1.2957347303008555,0.5186614204991796,0.6784299010914172,-0.7564314264843797,-0.8487678497888717,1.517092383999972,0.00996156451763612,0.09053450391527386,-0.6807309928776194,-0.400430146795158,0.09271544939501924
河南,武陟,-0.8776744012369362,-0.8405452302812837,0.06876452240501608,0.32794560861498284,0.5070005988712728,2.460569297868847,2.2570054008228064,-1.887611378012107,-0.8754251887166178,1.8467402586124912,-0.04905111410158163,0.2344668498440519,0.904623436595383,-1.1505493922751158,0.09271544939501924
河南,许昌,-0.7270086598490854,-0.8405452302812837,0.32121454468691013,0.012994314032999488,0.3260536288340618,0.8573662828310991,1.0408753246560807,-0.8565923993170732,-0.6092160968588637,1.8740434743598255,-0.015226773917396233,0.08045923970025937,0.5295550727728768,0.7355995029631682,0.05333872834730354
河南,汝南,-0.5160766219060942,-0.8405452302812837,-0.1735616232626251,0.012994314032999488,1.146337125520826,0.6315630412764864,1.0996388506150825,-0.33796611950862876,-0.5850165179202437,0.694785031784062,0.020756566704077682,-0.06779107660638217,-0.12242546604199028,-0.8788080807050179,-0.025414713748115738
河南,栾川,-0.3549128804731544,-0.8405452302812837,-0.22759875807692587,0.012994314032999488,0.17404590960963084,0.45092044803279635,0.09035634767599489,-0.4311347676629664,-0.42813407979199775,-0.7413098753981969,-0.17571247308916915,0.04447615321806485,-0.5900025081428134,-0.5155427857241577,-0.4191819242252765
河南,邓州,-0.23321384291341932,-0.8405452302812837,0.4889000111208315,0.012994314032999488,1.030336406764351,1.06058920023025,1.0243965940137474,-0.8958341027845088,-0.6801193535603974,1.3495079510896806,-0.1426077997174136,-0.11384942730359118,0.16486094029014212,-0.7750179964247721,-0.2748006137169971
河南,济源,-0.7503375488381719,-0.8405452302812837,0.3761788929078401,-0.3019569805489839,-0.5505438731697243,0.7444646620537922,0.6185814718897393,-1.237586488837157,-0.5966790257265138,0.05230034018732755,-0.10662445909593969,0.2301488794661884,-0.5120423081338801,1.1724614031609297,0.06646430202988834
河南,西平,-0.5551525109628141,-0.8405452302812837,0.6550976234836502,-0.3019569805489839,1.625387467554518,0.11221558570087797,0.8133453783586918,-0.3161289505777533,-0.3432041248378007,1.6237936937326864,-0.0029924381060949788,-0.013096785153446156,-0.004748534217482208,-0.6693408197030674,0.0008364336170282195
河南,扶沟,-0.746838215489809,-0.8405452302812837,0.4118766090630981,0.6953887856272957,1.274971741603067,0.5638220688101021,0.6061240905015596,-0.7532690711196939,-1.0753695780046002,1.1166038626181152,0.022915567141366198,0.08621653353741036,-0.05134049627006522,-0.9524046859219194,0.05333872834730354
河南,延津,-0.9525212534102556,-0.8405452302812837,1.1524937083844773,0.6953887856272957,0.7914952115205856,1.78315957320501,1.5386442733609078,-1.5451231565247374,-0.5125749779361755,0.7443846509993344,0.00996156451763612,0.2416634671404904,0.17081538076326536,-0.8042679292673868,0.2239711862207395
河南,杞县,-0.8712589567649375,-0.8405452302812837,0.06154088307429409,0.6953887856272957,1.239019773668579,0.8347859586756372,-0.31948897949907445,0.07423564950909481,-0.7620862729947087,2.1510917835459353,0.05170223963854574,0.15530405958322335,0.12901152548288455,-1.2826458631772468,0.17146889149046463
河南,封丘,-0.9945132535906115,-0.8405452302812837,0.9156877169516565,0.6953887856272957,1.1991998048104604,1.7154186007386258,1.3975688400078474,-1.4767012859069935,-0.6443707978606905,1.0847704317033606,0.025794234391084563,0.2272702325476124,-0.26631421314509246,-1.0854447030447798,0.25022233358589696
河南,方城,-0.477972769890586,-0.8405452302812837,-0.02452824047370268,0.6953887856272957,-0.06943374202629335,0.4283401238773356,0.0945259293460754,0.11622156853380114,-0.2399831956701118,0.21750362426141412,-0.07639845297390148,-0.028929343205611656,-0.12696802887715647,-0.9231547530793046,-0.11729372952611981
河南,安阳,-1.2099166619231776,-0.8405452302812837,0.10593931108013757,0.6953887856272957,1.4341179665971273,0.22511720647818378,0.4978503926506238,-0.31821184568103383,-0.5221178237010621,1.7744565439785986,0.022915567141366198,0.37839919577282993,1.1547099364665596,-0.5702684665264691,0.3421013493639011
河南,西华,-0.7180659190699354,-0.8405452302812837,0.3926962294073428,0.38043749104531344,0.38279217083782235,1.0154285519193273,0.8066533932433136,-1.0711205253629685,-0.7501804843773322,1.764632273413389,0.03371056932780878,0.04735480013663984,-0.05772463863300149,-0.694816567662764,0.0008364336170282195
河南,淅川,-0.143786435121921,-0.8405452302812837,0.43685746328591035,0.38043749104531344,0.7966446842949316,1.2186514693184782,0.8815611732076062,-0.838738257498127,-0.32508407098903463,-0.36898156690409173,-0.18578780846318188,-0.04907987163564066,0.2996031757386529,-0.8429533243172966,-0.3929307768601325
河南,遂平,-0.5135493255989432,-0.8405452302812837,0.6155940197407138,-0.2494650981186533,1.0848736474294578,0.06705493738995547,0.8710809506612841,-0.11014260767778612,-0.1224897922508471,0.6527260682007998,-0.0044317717309536485,-0.04620122471706568,0.3779316916531403,-0.6570747188335837,-0.038540287430687485
河南,平舆,-0.5289075108500918,-0.8405452302812837,0.6041763569776758,-0.2494650981186533,1.9692385984424892,0.1573762340118005,0.2976131949637861,-0.34871515721892243,-0.460918352377916,1.5030712710565752,0.04090723745210315,-0.07210904698424568,-0.07092262524868706,0.5214145108575702,-0.038540287430701
河南,辉县,-0.9704067349685555,-0.8405452302812837,-0.19928640452098925,-0.2494650981186533,0.5181800649554281,0.586402392965564,0.9111761842533458,-0.8858800593618823,-0.5201628440548891,0.24742000171614614,-0.01882510797954342,0.2877218178376994,0.8644156169057363,-0.8684290722769933,0.15834331780787936
河南,叶县,-0.5778981777271737,-0.8405452302812837,-0.10624161732078659,-0.2494650981186533,1.2982111943068386,0.7444646620537922,0.8414277915673273,-0.7374625808320607,-0.3486823096663557,1.0379691217011944,-0.051210114538870144,0.021446977869459836,0.15430255099759366,-1.0033561818413126,-0.0779170084784167
河南,唐河,-0.29017521352843917,-0.8405452302812837,-0.7394636847416773,-0.2494650981186533,1.0952354873021135,0.7444646620537922,0.701880732517462,-0.5329453914035396,-0.36626589813678473,0.6592514577347537,-0.08863278878520273,-0.11097078038501518,-0.7552535777680486,-0.555171726994797,-0.13041930320869202
河南,西峡,-0.22154939841887603,-0.8405452302812837,-0.04568164400635608,-0.2494650981186533,0.5805476489537426,0.45092044803279635,0.6411457699238349,-0.4737203308907203,-0.2909923199926574,-0.7653384240102289,-0.18578780846318188,-0.027490019746324163,1.2842957492373142,-0.2513498439198959,-0.4191819242252765
河南,渑池,-0.5324068441984547,-0.8405452302812837,1.4580644336252808,-0.2494650981186533,-1.0093894136307866,0.45092044803279635,-0.1427596990675772,-0.35389092750215245,-0.009338015614404524,-0.3259066092856868,-0.16635680452758625,0.1869691756875554,1.904908050095831,0.8271234863739302,-0.038540287430687485
河南,鹿邑,-0.6920153263654555,-0.8405452302812837,0.8561627725562547,1.0628319626396097,0.5355860691117712,-0.04584668338735133,-0.7242360925160455,-0.4171443282908594,-0.8700505541820209,2.5525370464949555,0.10207891650860942,0.05743006435165434,-0.7531664543032425,-0.9646707867914028,0.0008364336170282195
河南,汝州,-0.6049208074728656,-0.8405452302812837,-0.10796666551916861,1.0628319626396097,0.5651621249546624,1.4896153591840133,1.1170233249165027,-1.0835267661751353,-0.4764983050399507,2.3199037414094055,-0.08863278878520273,0.10060976813028837,0.8558215791094759,-0.9646707867914028,-0.11729372952611981
河南,濮阳,-1.1850325136681519,-0.8405452302812837,0.6228068775201956,0.7478806680576262,0.9356018312973532,1.4444547108730907,0.8948595828159335,-1.144499404377944,-0.761340211840649,1.6897968461997692,0.06969390994928269,0.3309015216163334,0.2814329243979881,-0.9901465347510995,0.3421013493639011
河南,汤阴,-1.1683134765593064,-0.8405452302812837,0.42164469448643294,0.7478806680576262,0.5525125040479076,0.7218843378983315,1.2808268204249313,-0.9895193210079706,-0.8387471755590941,1.481897977241265,0.020756566704077682,0.3524913735056499,-0.6910438382331318,-0.3730673063940022,0.35522692304645975
河南,虞城,-0.8564839937385159,-0.8405452302812837,-0.5549482168222961,0.432929373475644,0.6653999537682891,0.021894289079032944,-1.3196498753804706,-0.16813640882994,-0.6875762223192845,1.5237829470176745,0.12870658856849942,0.13371420769390685,-0.766732756824482,-1.2326379134785828,0.15834331780787936
河南,兰考,-0.9058634754320825,-0.8405452302812837,-0.1716856333468851,1.11532384506994,0.6775464200833532,0.6089827171210247,0.0025652906137892074,-0.5310069949453261,-0.7634810829783855,1.6787724026147943,0.05458090688826308,0.1941657929839939,0.22078357195009352,-0.8495581478624031,0.25022233358589696
河南,清丰,-1.2097222545149353,-0.8405452302812837,0.31214726009416754,0.8003725504879567,0.351455073924009,1.0154285519193273,0.7561302544281985,-0.9783858766234309,-0.9909710980531281,1.7020949176963471,0.07617091126114825,0.34961272658707393,-0.7397229237505208,-1.02788838358028,0.4077292177767612
河南,淮阳,-0.6758795114813373,-0.8405452302812837,-0.4857198763109982,0.48542125590597457,0.4562448794343489,0.6315630412764864,0.08162807424402281,-0.7094401650208857,-0.7492185894780347,2.5459739086810758,0.05889890776284011,0.037279535921625334,-0.7314972018598145,-1.1014849887971814,0.027087580982172642
河南,中牟,-0.856095178922031,-0.8405452302812837,0.7884654123210202,0.48542125590597457,0.15081431869635567,1.3541334142512458,1.3370292499183019,-1.3391254853337806,-0.8246381361088257,0.7373520436455177,-0.006590772168242166,0.17977255839111586,1.463604209257861,-0.9033402824439851,0.13209217044274846
河南,新安,-0.6018102889409873,-0.8405452302812837,0.9947703952962084,0.48542125590597457,-0.9099534874476677,0.5412417446546414,-0.2476233701370311,-0.8590433380076145,-0.134606424237849,0.427655934508534,-0.13757013203040672,0.17977255839111586,2.463029418978683,-0.0003665492058471264,-0.038540287430687485
河南,内乡,-0.22388228731778478,-0.8405452302812837,0.2384661389207975,0.48542125590597457,0.6299590022159897,0.40575979972187387,0.8506176563827211,-0.2866932675306805,-0.32389511399937104,-0.14385317001977382,-0.15916013640329188,-0.060594459309943685,-0.740029853671816,-0.8259694923441655,-0.31417733476470017
河南,睢县,-0.8088541787191308,-0.8405452302812837,1.3418069666056074,0.48542125590597457,0.9237226658591277,0.044474613234493705,-0.8701117765220255,-0.3519031900431846,-1.1099690997195433,2.186771655683331,0.07257257719900004,0.14091082499034638,-0.7698634420216912,-1.0750656946167554,0.14521774412532068
河南,汝阳,-0.5355173627303329,-0.8405452302812837,0.16634834267721013,1.7977183166642374,-0.6593667772040948,1.06058920023025,0.4284247597011243,-0.8348362906017232,-0.6865494525370252,0.057066493028070445,-0.1145407940326639,0.09773112121171236,0.22753603021858382,-0.6900988365591165,-0.18292159793897994
河南,新蔡,-0.47875039952355575,-0.8405452302812837,0.9253479868625918,0.17046996132399117,0.7047718005681828,0.27027785478910626,-0.14436368825205814,-0.4260090935998898,-0.10218520147773572,1.38898387938494,0.06609557588713551,-0.10377416308857669,-0.7271387969774253,-0.888243542912313,-0.051665861113259694
河南,孟津,-0.654689103982917,-0.8405452302812837,0.3251713739919478,0.17046996132399117,-0.7957295333431037,0.24769753063364552,0.20497147732780294,-0.43849765332658064,-0.3765286055837657,0.983477695770438,-0.11741946128238125,0.19560511644328138,-0.6903685924062828,-0.6985907525456821,-0.012289140065543526
河南,卫辉,-1.0388381426698758,-0.8405452302812837,0.19223484720417244,0.17046996132399117,0.3744901200749058,1.2863924417848625,1.2901042895081936,-1.3425161686968559,-0.08617108613741904,0.8921439499471185,0.0006058959560522083,0.27764655362268487,-0.7488694354051123,-0.1220840116799534,0.1845944651730238
河南,尉氏,-0.8457915862851846,-0.8405452302812837,0.743495562099462,0.17046996132399117,0.703686873479849,1.78315957320501,1.910966907824011,-1.2709399983880192,-0.7060530880243401,1.4507455334716846,0.008522230892777451,0.13659285461248288,0.5310283363950928,-1.1014849887971814,0.13209217044274846
河南,滑县,-1.0646943279661136,-0.8405452302812837,0.1339821258550777,0.8528644329182873,0.8894373975096187,0.6541433654319472,0.04008307857669872,-0.8417281710999717,-0.6434525687480016,1.5490819633321022,0.032990902515378936,0.3035543758898649,-0.15139965061223953,-1.251508837893173,0.3027246283161849
河南,郸城,-0.6148355852932275,-0.8405452302812837,0.4362968226214358,0.8528644329182873,-0.07700464627315785,0.1573762340118005,-0.6721096457315956,-0.2369414274229311,-0.9015635285806705,2.5382679422666037,0.08192824576058395,0.025764948247323338,-0.07620181989496129,-0.977880433881616,0.0008364336170282195
河南,开封,-0.921610475499716,-0.8405452302812837,0.918350760107908,0.8528644329182873,0.8822517209970188,1.4670350350285526,1.0532126759354072,-1.4449415410284627,-0.7521417019930208,0.9312850144656216,0.017158232641930494,0.19128714606541786,-0.7370833264273838,-1.2845329556187057,0.18459446517303685
河南,伊川,-0.5957836592854733,-0.8405452302812837,-0.1496804872662815,0.8528644329182873,-1.0090592184299891,1.896061193982316,0.5541325243161614,-1.4027270422655667,-0.5015437526448789,0.964359179550088,-0.1181391280948111,0.13659285461248288,-0.8258474596659016,-0.6853811054554689,-0.13041930320869202
河南,灵宝,-0.33313925075000683,-0.8405452302812837,-0.3544652715166453,-0.7743839224219577,-0.49157258266533044,0.767044986209254,0.6804215016943854,-1.0887632057501093,0.10468582916031205,-0.34113724390656786,-0.22968748402138003,0.15098608920536088,1.9670306661659416,-0.2579546674650025,0.07958987571246055
河南,鲁山,-0.55806862208645,-0.8405452302812837,-0.6695668880535065,0.537913138336305,-0.5738540819879518,0.8122056345201765,0.4441876694672777,-0.21262965626033595,-0.04287583491780088,0.04502180327486755,-0.08359512109819585,0.037279535921625334,-0.279328041808001,-0.9373079463902473,-0.14354487689126377
河南,桐柏,-0.3084495099032236,-0.8405452302812837,-0.22823486960007938,0.537913138336305,0.3919747421362,0.17995655816726125,-0.4615183865436095,-0.22453720052916243,-0.2178309183264948,-0.3915945313131921,-0.04761178047672194,-0.1584684545415127,-0.6969982787062551,0.17418950162911176,-0.13041930320869202
河南,范县,-1.1852269210763944,-0.8405452302812837,0.519605869052023,0.537913138336305,1.076209954303763,0.7444646620537922,0.0897974787696204,-0.7498423889652518,-0.6622637896190906,2.2854252831574473,0.10351825013346809,0.3452947562092104,0.19432621273446338,-0.8693726184977227,0.39460364409418897
河南,禹州,-0.6927929559984249,-0.8405452302812837,-0.5024744069377792,0.537913138336305,0.5207665940283444,0.7218843378983315,0.8222953191994085,-0.7734140451165288,-0.5949885359878,1.8782408964080999,-0.04257411278971608,0.10060976813028837,0.9651500170747596,-0.33721255000628103,-0.038540287430687485
河南,镇平,-0.30864391731146607,-0.8405452302812837,0.48313188120749384,0.22296184375432174,1.351105320758453,0.7218843378983315,0.9402881860347433,-0.4949628904145438,-0.36768441240462046,1.1932426163599976,-0.13181279753097103,-0.06347310622851868,-0.7452476623338311,-0.8325743158892721,-0.20917274530413696
河南,沈丘,-0.5893682148134746,-0.8405452302812837,0.6233243919797106,0.9053563153486178,0.7176965841422693,0.5412417446546414,0.3237055062427762,-0.5882047948506136,-0.7490351931742775,3.2696953740415218,0.07257257719900004,-0.010218138234871168,-0.15410063391963566,-0.9335337615073294,-0.038540287430687485
河南,宜阳,-0.5728435851128716,-0.8405452302812837,0.11889873567047901,0.9053563153486178,-0.4903618669290718,1.3089727659403232,0.6019196306159662,-1.2751156064467708,-0.41428578746747924,0.3064304796688266,-0.13613079840554806,0.15098608920536088,-0.6872379072090736,-0.7457680635821574,-0.1041681558435476
河南,民权,-0.8263508454609457,-0.8405452302812837,-0.6208450580004696,0.5904050207666357,0.7085218746343883,0.08963526154541622,-0.8601796596827593,-0.4212081638785146,-0.8434031960054996,1.608103509952275,0.07689057807357708,0.16969729417610138,0.032267214290696386,-0.6985907525456821,0.15834331780787936
河南,修武,-0.9068355124732944,-0.8405452302812837,1.541459732465786,0.5904050207666357,0.6946929851533543,1.7379989248940866,1.745578633398239,-1.7902648561408199,-0.6177995429122588,0.40371373002699934,-0.04545278003943342,0.2531780548147924,1.0792665618122455,-0.2900352389698057,0.07958987571246055
河南,洛宁,-0.47525106617519264,-0.8405452302812837,0.5913678741046935,0.5904050207666357,-0.5237430293716333,0.7896253103647147,0.04524573568767699,-0.9161316311000031,0.16692579379865163,-0.4255491477572637,-0.17355347265188065,0.13083556077533187,0.5310897223793519,-0.6910423827798461,-0.14354487689126377
河南,新乡,-1.003650401778004,-0.8405452302812837,1.973282422725637,0.5904050207666357,1.4044239838968078,2.641211891112537,3.05631423422593,-1.9754345832581712,-0.8386685771431981,2.0120770239190167,-0.011628439855248023,0.26325331902980686,2.113436238623663,-1.2335814596993124,0.18459446517303685
河南,长垣,-1.0505025871644191,-0.8405452302812837,0.3896881766114159,0.2754537261846523,1.609813260583555,1.42187438671763,1.0076550505678077,-1.4095023672365228,-0.5840621085843647,1.865982160206444,0.044505571514251364,0.2488600844369299,0.24472410581110454,-1.2137669890639926,0.28959905463361313
